{
"type": "FeatureCollection",
"name": "pois_point",
"crs": { "type": "name", "properties": { "name": "urn:ogc:def:crs:OGC:1.3:CRS84" } },
"features": [
{ "type": "Feature", "properties": { "osm_id": "432799697", "code": 2251, "fclass": "sports_centre", "name": "Соколски дом" }, "geometry": { "type": "Point", "coordinates": [ 19.8487012, 45.2550691 ] } },
{ "type": "Feature", "properties": { "osm_id": "432828402", "code": 2901, "fclass": "toilet", "name": null }, "geometry": { "type": "Point", "coordinates": [ 19.8446241, 45.2545113 ] } },
{ "type": "Feature", "properties": { "osm_id": "432829056", "code": 2101, "fclass": "pharmacy", "name": "Benu" }, "geometry": { "type": "Point", "coordinates": [ 19.8484388, 45.254029 ] } },
{ "type": "Feature", "properties": { "osm_id": "432887687", "code": 2101, "fclass": "pharmacy", "name": "Apoteka Janković" }, "geometry": { "type": "Point", "coordinates": [ 19.8436885, 45.256701 ] } },
{ "type": "Feature", "properties": { "osm_id": "433613060", "code": 2724, "fclass": "memorial", "name": "Мирослав Антић" }, "geometry": { "type": "Point", "coordinates": [ 19.8503303, 45.2553426 ] } },
{ "type": "Feature", "properties": { "osm_id": "433613060", "code": 2725, "fclass": "artwork", "name": "Мирослав Антић" }, "geometry": { "type": "Point", "coordinates": [ 19.8503303, 45.2553426 ] } },
{ "type": "Feature", "properties": { "osm_id": "433613094", "code": 2724, "fclass": "memorial", "name": "Јован Јовановић Змај" }, "geometry": { "type": "Point", "coordinates": [ 19.8477461, 45.2568632 ] } },
{ "type": "Feature", "properties": { "osm_id": "433613094", "code": 2725, "fclass": "artwork", "name": "Јован Јовановић Змај" }, "geometry": { "type": "Point", "coordinates": [ 19.8477461, 45.2568632 ] } },
{ "type": "Feature", "properties": { "osm_id": "433837247", "code": 2722, "fclass": "museum", "name": "Позоришни музеј Војводине" }, "geometry": { "type": "Point", "coordinates": [ 19.8443302, 45.2539631 ] } },
{ "type": "Feature", "properties": { "osm_id": "439257364", "code": 2004, "fclass": "post_box", "name": null }, "geometry": { "type": "Point", "coordinates": [ 19.8455778, 45.2552563 ] } },
{ "type": "Feature", "properties": { "osm_id": "439260532", "code": 2006, "fclass": "telephone", "name": null }, "geometry": { "type": "Point", "coordinates": [ 19.8481819, 45.2539859 ] } },
{ "type": "Feature", "properties": { "osm_id": "439260625", "code": 2006, "fclass": "telephone", "name": null }, "geometry": { "type": "Point", "coordinates": [ 19.8483892, 45.2570507 ] } },
{ "type": "Feature", "properties": { "osm_id": "442068032", "code": 2030, "fclass": "recycling", "name": null }, "geometry": { "type": "Point", "coordinates": [ 19.8452739, 45.2403285 ] } },
{ "type": "Feature", "properties": { "osm_id": "442068033", "code": 2030, "fclass": "recycling", "name": null }, "geometry": { "type": "Point", "coordinates": [ 19.8444676, 45.2401375 ] } },
{ "type": "Feature", "properties": { "osm_id": "442068037", "code": 2906, "fclass": "waste_basket", "name": null }, "geometry": { "type": "Point", "coordinates": [ 19.8455673, 45.2400749 ] } },
{ "type": "Feature", "properties": { "osm_id": "442068038", "code": 2030, "fclass": "recycling", "name": null }, "geometry": { "type": "Point", "coordinates": [ 19.8441754, 45.2407653 ] } },
{ "type": "Feature", "properties": { "osm_id": "442068044", "code": 2031, "fclass": "recycling_glass", "name": null }, "geometry": { "type": "Point", "coordinates": [ 19.8448969, 45.2410179 ] } },
{ "type": "Feature", "properties": { "osm_id": "442093070", "code": 2101, "fclass": "pharmacy", "name": "Јанковић" }, "geometry": { "type": "Point", "coordinates": [ 19.8476131, 45.2438199 ] } },
{ "type": "Feature", "properties": { "osm_id": "442118336", "code": 2006, "fclass": "telephone", "name": null }, "geometry": { "type": "Point", "coordinates": [ 19.8486851, 45.2404113 ] } },
{ "type": "Feature", "properties": { "osm_id": "442706533", "code": 2515, "fclass": "bookshop", "name": "Беседа" }, "geometry": { "type": "Point", "coordinates": [ 19.8463735, 45.2555287 ] } },
{ "type": "Feature", "properties": { "osm_id": "442706574", "code": 2515, "fclass": "bookshop", "name": "Мала велика књига" }, "geometry": { "type": "Point", "coordinates": [ 19.8488462, 45.2552066 ] } },
{ "type": "Feature", "properties": { "osm_id": "442706815", "code": 2515, "fclass": "bookshop", "name": "Нолит" }, "geometry": { "type": "Point", "coordinates": [ 19.8434814, 45.254512 ] } },
{ "type": "Feature", "properties": { "osm_id": "447586539", "code": 2101, "fclass": "pharmacy", "name": null }, "geometry": { "type": "Point", "coordinates": [ 19.8517833, 45.2576848 ] } },
{ "type": "Feature", "properties": { "osm_id": "447586540", "code": 2101, "fclass": "pharmacy", "name": "Дунав" }, "geometry": { "type": "Point", "coordinates": [ 19.8490422, 45.2581559 ] } },
{ "type": "Feature", "properties": { "osm_id": "526279386", "code": 2301, "fclass": "restaurant", "name": "Старо здање" }, "geometry": { "type": "Point", "coordinates": [ 19.84432, 45.2593337 ] } },
{ "type": "Feature", "properties": { "osm_id": "560714910", "code": 2082, "fclass": "school", "name": "ОШ „Јован Поповић“" }, "geometry": { "type": "Point", "coordinates": [ 19.8497243, 45.2440731 ] } },
{ "type": "Feature", "properties": { "osm_id": "566194204", "code": 2001, "fclass": "police", "name": "Комунална полиција" }, "geometry": { "type": "Point", "coordinates": [ 19.8411328, 45.2461348 ] } },
{ "type": "Feature", "properties": { "osm_id": "567821374", "code": 2005, "fclass": "post_office", "name": "21121 Нови Сад" }, "geometry": { "type": "Point", "coordinates": [ 19.8461655, 45.2477865 ] } },
{ "type": "Feature", "properties": { "osm_id": "871146541", "code": 2601, "fclass": "bank", "name": "OTP banka" }, "geometry": { "type": "Point", "coordinates": [ 19.8447276, 45.2553006 ] } },
{ "type": "Feature", "properties": { "osm_id": "871146542", "code": 2601, "fclass": "bank", "name": "Raiffeisen bank" }, "geometry": { "type": "Point", "coordinates": [ 19.8439304, 45.2547424 ] } },
{ "type": "Feature", "properties": { "osm_id": "871155792", "code": 2301, "fclass": "restaurant", "name": "Teatar cafe" }, "geometry": { "type": "Point", "coordinates": [ 19.8430082, 45.2543888 ] } },
{ "type": "Feature", "properties": { "osm_id": "1076999433", "code": 2301, "fclass": "restaurant", "name": "Hao-Hao 88" }, "geometry": { "type": "Point", "coordinates": [ 19.8430802, 45.2421484 ] } },
{ "type": "Feature", "properties": { "osm_id": "1121256436", "code": 2401, "fclass": "hotel", "name": "Voyager" }, "geometry": { "type": "Point", "coordinates": [ 19.8487887, 45.2483147 ] } },
{ "type": "Feature", "properties": { "osm_id": "1234236130", "code": 2101, "fclass": "pharmacy", "name": "Тилија" }, "geometry": { "type": "Point", "coordinates": [ 19.8309045, 45.2640505 ] } },
{ "type": "Feature", "properties": { "osm_id": "1445199911", "code": 2601, "fclass": "bank", "name": "Банка Интеза" }, "geometry": { "type": "Point", "coordinates": [ 19.8282208, 45.2403807 ] } },
{ "type": "Feature", "properties": { "osm_id": "1455639760", "code": 2404, "fclass": "guesthouse", "name": "Сова" }, "geometry": { "type": "Point", "coordinates": [ 19.8462349, 45.2541419 ] } },
{ "type": "Feature", "properties": { "osm_id": "1461305684", "code": 2601, "fclass": "bank", "name": "Erste Bank" }, "geometry": { "type": "Point", "coordinates": [ 19.8451795, 45.2555364 ] } },
{ "type": "Feature", "properties": { "osm_id": "1473515532", "code": 2724, "fclass": "memorial", "name": "Јаша Томић" }, "geometry": { "type": "Point", "coordinates": [ 19.8502034, 45.2563125 ] } },
{ "type": "Feature", "properties": { "osm_id": "1473515533", "code": 2724, "fclass": "memorial", "name": "Јован Стерија Поповић" }, "geometry": { "type": "Point", "coordinates": [ 19.8427387, 45.2547376 ] } },
{ "type": "Feature", "properties": { "osm_id": "1473515533", "code": 2725, "fclass": "artwork", "name": "Јован Стерија Поповић" }, "geometry": { "type": "Point", "coordinates": [ 19.8427387, 45.2547376 ] } },
{ "type": "Feature", "properties": { "osm_id": "1473515534", "code": 2724, "fclass": "memorial", "name": "Јован Ђорђевић" }, "geometry": { "type": "Point", "coordinates": [ 19.8435637, 45.2550131 ] } },
{ "type": "Feature", "properties": { "osm_id": "1473515534", "code": 2725, "fclass": "artwork", "name": "Јован Ђорђевић" }, "geometry": { "type": "Point", "coordinates": [ 19.8435637, 45.2550131 ] } },
{ "type": "Feature", "properties": { "osm_id": "1473515536", "code": 2724, "fclass": "memorial", "name": "Марина Олењина" }, "geometry": { "type": "Point", "coordinates": [ 19.8440768, 45.2549285 ] } },
{ "type": "Feature", "properties": { "osm_id": "1473515536", "code": 2725, "fclass": "artwork", "name": "Марина Олењина" }, "geometry": { "type": "Point", "coordinates": [ 19.8440768, 45.2549285 ] } },
{ "type": "Feature", "properties": { "osm_id": "1473515537", "code": 2724, "fclass": "memorial", "name": "Ђура Јакшић" }, "geometry": { "type": "Point", "coordinates": [ 19.8506126, 45.2544577 ] } },
{ "type": "Feature", "properties": { "osm_id": "1473515537", "code": 2725, "fclass": "artwork", "name": "Ђура Јакшић" }, "geometry": { "type": "Point", "coordinates": [ 19.8506126, 45.2544577 ] } },
{ "type": "Feature", "properties": { "osm_id": "1474142162", "code": 2724, "fclass": "memorial", "name": "Васа Стајић" }, "geometry": { "type": "Point", "coordinates": [ 19.847899, 45.25282 ] } },
{ "type": "Feature", "properties": { "osm_id": "1474304023", "code": 2405, "fclass": "hostel", "name": "Smile" }, "geometry": { "type": "Point", "coordinates": [ 19.8333817, 45.2575411 ] } },
{ "type": "Feature", "properties": { "osm_id": "1495886819", "code": 2724, "fclass": "memorial", "name": "Михајло Пупин" }, "geometry": { "type": "Point", "coordinates": [ 19.8474221, 45.2539584 ] } },
{ "type": "Feature", "properties": { "osm_id": "1517088240", "code": 2724, "fclass": "memorial", "name": "Ференц Фехер" }, "geometry": { "type": "Point", "coordinates": [ 19.8496058, 45.2511249 ] } },
{ "type": "Feature", "properties": { "osm_id": "1524569368", "code": 2724, "fclass": "memorial", "name": "Споменик жртвама Рације 1942." }, "geometry": { "type": "Point", "coordinates": [ 19.8559597, 45.2521714 ] } },
{ "type": "Feature", "properties": { "osm_id": "1533383870", "code": 2101, "fclass": "pharmacy", "name": null }, "geometry": { "type": "Point", "coordinates": [ 19.8282376, 45.2377737 ] } },
{ "type": "Feature", "properties": { "osm_id": "1538827182", "code": 2601, "fclass": "bank", "name": "Komercijalna banka" }, "geometry": { "type": "Point", "coordinates": [ 19.8469772, 45.2546531 ] } },
{ "type": "Feature", "properties": { "osm_id": "1542348814", "code": 2302, "fclass": "fast_food", "name": "Паркинг" }, "geometry": { "type": "Point", "coordinates": [ 19.8247914, 45.2568034 ] } },
{ "type": "Feature", "properties": { "osm_id": "1542352809", "code": 2110, "fclass": "hospital", "name": "Genesis" }, "geometry": { "type": "Point", "coordinates": [ 19.8291456, 45.2533497 ] } },
{ "type": "Feature", "properties": { "osm_id": "1542412736", "code": 2303, "fclass": "cafe", "name": "Que Passa" }, "geometry": { "type": "Point", "coordinates": [ 19.838467, 45.258237 ] } },
{ "type": "Feature", "properties": { "osm_id": "1542412752", "code": 2502, "fclass": "bakery", "name": "Виолета" }, "geometry": { "type": "Point", "coordinates": [ 19.8246149, 45.2590603 ] } },
{ "type": "Feature", "properties": { "osm_id": "1542412772", "code": 2302, "fclass": "fast_food", "name": "Picerija Ciao" }, "geometry": { "type": "Point", "coordinates": [ 19.8356449, 45.2590874 ] } },
{ "type": "Feature", "properties": { "osm_id": "1542489896", "code": 2724, "fclass": "memorial", "name": "Јаника Балаж" }, "geometry": { "type": "Point", "coordinates": [ 19.8541904, 45.2539775 ] } },
{ "type": "Feature", "properties": { "osm_id": "1542489896", "code": 2725, "fclass": "artwork", "name": "Јаника Балаж" }, "geometry": { "type": "Point", "coordinates": [ 19.8541904, 45.2539775 ] } },
{ "type": "Feature", "properties": { "osm_id": "1577981423", "code": 2724, "fclass": "memorial", "name": "Узеир Хаџибејли" }, "geometry": { "type": "Point", "coordinates": [ 19.8556807, 45.2596828 ] } },
{ "type": "Feature", "properties": { "osm_id": "1577981423", "code": 2725, "fclass": "artwork", "name": "Узеир Хаџибејли" }, "geometry": { "type": "Point", "coordinates": [ 19.8556807, 45.2596828 ] } },
{ "type": "Feature", "properties": { "osm_id": "1595494123", "code": 2302, "fclass": "fast_food", "name": "Баш Баш" }, "geometry": { "type": "Point", "coordinates": [ 19.8334694, 45.2367116 ] } },
{ "type": "Feature", "properties": { "osm_id": "1596088570", "code": 2601, "fclass": "bank", "name": "Api bank" }, "geometry": { "type": "Point", "coordinates": [ 19.8415692, 45.2425 ] } },
{ "type": "Feature", "properties": { "osm_id": "1596088581", "code": 2601, "fclass": "bank", "name": "OTP banka" }, "geometry": { "type": "Point", "coordinates": [ 19.8416853, 45.2422983 ] } },
{ "type": "Feature", "properties": { "osm_id": "1596097758", "code": 2101, "fclass": "pharmacy", "name": "Јанковић" }, "geometry": { "type": "Point", "coordinates": [ 19.8422872, 45.2437225 ] } },
{ "type": "Feature", "properties": { "osm_id": "1599897128", "code": 2601, "fclass": "bank", "name": "Addiko банка" }, "geometry": { "type": "Point", "coordinates": [ 19.8414026, 45.2426506 ] } },
{ "type": "Feature", "properties": { "osm_id": "1599897146", "code": 2601, "fclass": "bank", "name": "КБЦ банка" }, "geometry": { "type": "Point", "coordinates": [ 19.8416261, 45.2423944 ] } },
{ "type": "Feature", "properties": { "osm_id": "1606233941", "code": 2561, "fclass": "hairdresser", "name": "Снаве" }, "geometry": { "type": "Point", "coordinates": [ 19.8448175, 45.2415432 ] } },
{ "type": "Feature", "properties": { "osm_id": "1606996669", "code": 2302, "fclass": "fast_food", "name": null }, "geometry": { "type": "Point", "coordinates": [ 19.8479473, 45.241982 ] } },
{ "type": "Feature", "properties": { "osm_id": "1609589423", "code": 2724, "fclass": "memorial", "name": "Бранко Радичевић" }, "geometry": { "type": "Point", "coordinates": [ 19.8520647, 45.2554213 ] } },
{ "type": "Feature", "properties": { "osm_id": "1609589423", "code": 2725, "fclass": "artwork", "name": "Бранко Радичевић" }, "geometry": { "type": "Point", "coordinates": [ 19.8520647, 45.2554213 ] } },
{ "type": "Feature", "properties": { "osm_id": "1618763490", "code": 2724, "fclass": "memorial", "name": "Спомен плоча Олегу Насову" }, "geometry": { "type": "Point", "coordinates": [ 19.8543315, 45.2541886 ] } },
{ "type": "Feature", "properties": { "osm_id": "1618763490", "code": 2725, "fclass": "artwork", "name": "Спомен плоча Олегу Насову" }, "geometry": { "type": "Point", "coordinates": [ 19.8543315, 45.2541886 ] } },
{ "type": "Feature", "properties": { "osm_id": "1752456003", "code": 2501, "fclass": "supermarket", "name": "Maxi" }, "geometry": { "type": "Point", "coordinates": [ 19.8447825, 45.2536797 ] } },
{ "type": "Feature", "properties": { "osm_id": "1763633970", "code": 2724, "fclass": "memorial", "name": "Драга Спасић" }, "geometry": { "type": "Point", "coordinates": [ 19.8427581, 45.2558518 ] } },
{ "type": "Feature", "properties": { "osm_id": "1763633970", "code": 2725, "fclass": "artwork", "name": "Драга Спасић" }, "geometry": { "type": "Point", "coordinates": [ 19.8427581, 45.2558518 ] } },
{ "type": "Feature", "properties": { "osm_id": "1789117674", "code": 2101, "fclass": "pharmacy", "name": "Апотека „Свети Сава“" }, "geometry": { "type": "Point", "coordinates": [ 19.8346867, 45.2440325 ] } },
{ "type": "Feature", "properties": { "osm_id": "1789128793", "code": 2501, "fclass": "supermarket", "name": "Ембарго" }, "geometry": { "type": "Point", "coordinates": [ 19.8494094, 45.2605484 ] } },
{ "type": "Feature", "properties": { "osm_id": "1789128843", "code": 2511, "fclass": "convenience", "name": "Нектар" }, "geometry": { "type": "Point", "coordinates": [ 19.8496562, 45.2605068 ] } },
{ "type": "Feature", "properties": { "osm_id": "1864478289", "code": 2901, "fclass": "toilet", "name": null }, "geometry": { "type": "Point", "coordinates": [ 19.8571588, 45.2620749 ] } },
{ "type": "Feature", "properties": { "osm_id": "1916794598", "code": 2724, "fclass": "memorial", "name": "Споменик страдалима у Ι светском рату" }, "geometry": { "type": "Point", "coordinates": [ 19.8423568, 45.2556497 ] } },
{ "type": "Feature", "properties": { "osm_id": "1916794598", "code": 2725, "fclass": "artwork", "name": "Споменик страдалима у Ι светском рату" }, "geometry": { "type": "Point", "coordinates": [ 19.8423568, 45.2556497 ] } },
{ "type": "Feature", "properties": { "osm_id": "1984328528", "code": 2515, "fclass": "bookshop", "name": "Књижара Матице српске" }, "geometry": { "type": "Point", "coordinates": [ 19.8451582, 45.2591345 ] } },
{ "type": "Feature", "properties": { "osm_id": "2142305174", "code": 2005, "fclass": "post_office", "name": "21111 Нови Сад" }, "geometry": { "type": "Point", "coordinates": [ 19.8532202, 45.2575143 ] } },
{ "type": "Feature", "properties": { "osm_id": "2264455542", "code": 2302, "fclass": "fast_food", "name": "Буби" }, "geometry": { "type": "Point", "coordinates": [ 19.8425021, 45.2478754 ] } },
{ "type": "Feature", "properties": { "osm_id": "2264461704", "code": 2902, "fclass": "bench", "name": null }, "geometry": { "type": "Point", "coordinates": [ 19.8451119, 45.254811 ] } },
{ "type": "Feature", "properties": { "osm_id": "2264463136", "code": 2902, "fclass": "bench", "name": null }, "geometry": { "type": "Point", "coordinates": [ 19.8452513, 45.2549093 ] } },
{ "type": "Feature", "properties": { "osm_id": "2264463980", "code": 2902, "fclass": "bench", "name": null }, "geometry": { "type": "Point", "coordinates": [ 19.84538, 45.2550018 ] } },
{ "type": "Feature", "properties": { "osm_id": "2264464372", "code": 2902, "fclass": "bench", "name": null }, "geometry": { "type": "Point", "coordinates": [ 19.8455222, 45.2551019 ] } },
{ "type": "Feature", "properties": { "osm_id": "2264466088", "code": 2902, "fclass": "bench", "name": null }, "geometry": { "type": "Point", "coordinates": [ 19.8453667, 45.2551868 ] } },
{ "type": "Feature", "properties": { "osm_id": "2264466491", "code": 2902, "fclass": "bench", "name": null }, "geometry": { "type": "Point", "coordinates": [ 19.8452139, 45.2552793 ] } },
{ "type": "Feature", "properties": { "osm_id": "2264466981", "code": 2902, "fclass": "bench", "name": null }, "geometry": { "type": "Point", "coordinates": [ 19.845069, 45.2553605 ] } },
{ "type": "Feature", "properties": { "osm_id": "2264467423", "code": 2902, "fclass": "bench", "name": null }, "geometry": { "type": "Point", "coordinates": [ 19.8449, 45.2552661 ] } },
{ "type": "Feature", "properties": { "osm_id": "2264467973", "code": 2902, "fclass": "bench", "name": null }, "geometry": { "type": "Point", "coordinates": [ 19.8447391, 45.2551792 ] } },
{ "type": "Feature", "properties": { "osm_id": "2264469408", "code": 2602, "fclass": "atm", "name": "UniCredit Bank" }, "geometry": { "type": "Point", "coordinates": [ 19.8320591, 45.2601788 ] } },
{ "type": "Feature", "properties": { "osm_id": "2264474704", "code": 2303, "fclass": "cafe", "name": "Flying Dutchman" }, "geometry": { "type": "Point", "coordinates": [ 19.8337714, 45.2570233 ] } },
{ "type": "Feature", "properties": { "osm_id": "2272494076", "code": 2502, "fclass": "bakery", "name": null }, "geometry": { "type": "Point", "coordinates": [ 19.8329371, 45.2578254 ] } },
{ "type": "Feature", "properties": { "osm_id": "2272494458", "code": 2511, "fclass": "convenience", "name": null }, "geometry": { "type": "Point", "coordinates": [ 19.8330337, 45.2576914 ] } },
{ "type": "Feature", "properties": { "osm_id": "2272495047", "code": 2503, "fclass": "kiosk", "name": "Corner Kiosk" }, "geometry": { "type": "Point", "coordinates": [ 19.8327172, 45.2589117 ] } },
{ "type": "Feature", "properties": { "osm_id": "2272495311", "code": 2302, "fclass": "fast_food", "name": "Zarićev Vajat" }, "geometry": { "type": "Point", "coordinates": [ 19.8328366, 45.2577128 ] } },
{ "type": "Feature", "properties": { "osm_id": "2272495684", "code": 2511, "fclass": "convenience", "name": "Mikromarket" }, "geometry": { "type": "Point", "coordinates": [ 19.8318752, 45.2589985 ] } },
{ "type": "Feature", "properties": { "osm_id": "2298182347", "code": 2511, "fclass": "convenience", "name": null }, "geometry": { "type": "Point", "coordinates": [ 19.8379829, 45.254935 ] } },
{ "type": "Feature", "properties": { "osm_id": "2298183548", "code": 2503, "fclass": "kiosk", "name": "Kljućara" }, "geometry": { "type": "Point", "coordinates": [ 19.8300669, 45.2597956 ] } },
{ "type": "Feature", "properties": { "osm_id": "2298183987", "code": 2511, "fclass": "convenience", "name": null }, "geometry": { "type": "Point", "coordinates": [ 19.8306445, 45.2587643 ] } },
{ "type": "Feature", "properties": { "osm_id": "2298184036", "code": 2101, "fclass": "pharmacy", "name": "Apoteka Fenix" }, "geometry": { "type": "Point", "coordinates": [ 19.8324514, 45.2593481 ] } },
{ "type": "Feature", "properties": { "osm_id": "2307662969", "code": 2724, "fclass": "memorial", "name": "Надежда Петровић" }, "geometry": { "type": "Point", "coordinates": [ 19.8459719, 45.2528325 ] } },
{ "type": "Feature", "properties": { "osm_id": "2316021102", "code": 2501, "fclass": "supermarket", "name": "Микромаркет" }, "geometry": { "type": "Point", "coordinates": [ 19.8335933, 45.2465108 ] } },
{ "type": "Feature", "properties": { "osm_id": "2318109657", "code": 2724, "fclass": "memorial", "name": "Доситеј Обрадовић" }, "geometry": { "type": "Point", "coordinates": [ 19.8528073, 45.2456392 ] } },
{ "type": "Feature", "properties": { "osm_id": "2338043201", "code": 2302, "fclass": "fast_food", "name": "Caribic Pice" }, "geometry": { "type": "Point", "coordinates": [ 19.8461015, 45.254642 ] } },
{ "type": "Feature", "properties": { "osm_id": "2338043357", "code": 2304, "fclass": "pub", "name": "Bistro 0h-24h" }, "geometry": { "type": "Point", "coordinates": [ 19.8459646, 45.254703 ] } },
{ "type": "Feature", "properties": { "osm_id": "2338043398", "code": 2503, "fclass": "kiosk", "name": null }, "geometry": { "type": "Point", "coordinates": [ 19.8456259, 45.2549494 ] } },
{ "type": "Feature", "properties": { "osm_id": "2338045102", "code": 2305, "fclass": "bar", "name": "Тапас" }, "geometry": { "type": "Point", "coordinates": [ 19.8445531, 45.2570967 ] } },
{ "type": "Feature", "properties": { "osm_id": "2338046951", "code": 2304, "fclass": "pub", "name": "Липа" }, "geometry": { "type": "Point", "coordinates": [ 19.8466911, 45.2566622 ] } },
{ "type": "Feature", "properties": { "osm_id": "2338054354", "code": 2601, "fclass": "bank", "name": "UniCredit Bank" }, "geometry": { "type": "Point", "coordinates": [ 19.8320119, 45.2601778 ] } },
{ "type": "Feature", "properties": { "osm_id": "2338054809", "code": 2503, "fclass": "kiosk", "name": "Maxim Box" }, "geometry": { "type": "Point", "coordinates": [ 19.832213, 45.2602533 ] } },
{ "type": "Feature", "properties": { "osm_id": "2338054920", "code": 2503, "fclass": "kiosk", "name": null }, "geometry": { "type": "Point", "coordinates": [ 19.8330612, 45.2607137 ] } },
{ "type": "Feature", "properties": { "osm_id": "2338055585", "code": 2503, "fclass": "kiosk", "name": "Мој киоск" }, "geometry": { "type": "Point", "coordinates": [ 19.8355175, 45.2554256 ] } },
{ "type": "Feature", "properties": { "osm_id": "2338056011", "code": 2502, "fclass": "bakery", "name": null }, "geometry": { "type": "Point", "coordinates": [ 19.8349569, 45.2548271 ] } },
{ "type": "Feature", "properties": { "osm_id": "2338056661", "code": 2303, "fclass": "cafe", "name": "Street" }, "geometry": { "type": "Point", "coordinates": [ 19.8319019, 45.2549706 ] } },
{ "type": "Feature", "properties": { "osm_id": "2338056923", "code": 2503, "fclass": "kiosk", "name": null }, "geometry": { "type": "Point", "coordinates": [ 19.8314218, 45.2552896 ] } },
{ "type": "Feature", "properties": { "osm_id": "2338057112", "code": 2511, "fclass": "convenience", "name": "IDEA" }, "geometry": { "type": "Point", "coordinates": [ 19.8330754, 45.2551664 ] } },
{ "type": "Feature", "properties": { "osm_id": "2338057899", "code": 2301, "fclass": "restaurant", "name": "Бањалучки ћевап" }, "geometry": { "type": "Point", "coordinates": [ 19.8381605, 45.2527656 ] } },
{ "type": "Feature", "properties": { "osm_id": "2387620475", "code": 2303, "fclass": "cafe", "name": "Ambiente" }, "geometry": { "type": "Point", "coordinates": [ 19.8513804, 45.2502528 ] } },
{ "type": "Feature", "properties": { "osm_id": "2428051416", "code": 2405, "fclass": "hostel", "name": "Хостел 021" }, "geometry": { "type": "Point", "coordinates": [ 19.8385667, 45.2551389 ] } },
{ "type": "Feature", "properties": { "osm_id": "2452584212", "code": 2601, "fclass": "bank", "name": "Erste Bank" }, "geometry": { "type": "Point", "coordinates": [ 19.8499535, 45.258574 ] } },
{ "type": "Feature", "properties": { "osm_id": "2500620858", "code": 2101, "fclass": "pharmacy", "name": "Јанковић" }, "geometry": { "type": "Point", "coordinates": [ 19.8470459, 45.2402814 ] } },
{ "type": "Feature", "properties": { "osm_id": "2524154993", "code": 2303, "fclass": "cafe", "name": "Caffe Atrijum" }, "geometry": { "type": "Point", "coordinates": [ 19.8502293, 45.2468529 ] } },
{ "type": "Feature", "properties": { "osm_id": "2525018221", "code": 2405, "fclass": "hostel", "name": "Frenky Hostel" }, "geometry": { "type": "Point", "coordinates": [ 19.8407614, 45.252504 ] } },
{ "type": "Feature", "properties": { "osm_id": "2533870974", "code": 2303, "fclass": "cafe", "name": "Cafe-Pub The Sting" }, "geometry": { "type": "Point", "coordinates": [ 19.8425541, 45.2478399 ] } },
{ "type": "Feature", "properties": { "osm_id": "2546904801", "code": 2305, "fclass": "bar", "name": "Точионица" }, "geometry": { "type": "Point", "coordinates": [ 19.8468698, 45.2425708 ] } },
{ "type": "Feature", "properties": { "osm_id": "2549747737", "code": 2303, "fclass": "cafe", "name": "Машинац" }, "geometry": { "type": "Point", "coordinates": [ 19.8515713, 45.246561 ] } },
{ "type": "Feature", "properties": { "osm_id": "2549747749", "code": 2511, "fclass": "convenience", "name": null }, "geometry": { "type": "Point", "coordinates": [ 19.8484466, 45.2456639 ] } },
{ "type": "Feature", "properties": { "osm_id": "2549747753", "code": 2301, "fclass": "restaurant", "name": "Велика менза" }, "geometry": { "type": "Point", "coordinates": [ 19.8490766, 45.2460015 ] } },
{ "type": "Feature", "properties": { "osm_id": "2554181648", "code": 2301, "fclass": "restaurant", "name": "The Camelot" }, "geometry": { "type": "Point", "coordinates": [ 19.8431506, 45.2491509 ] } },
{ "type": "Feature", "properties": { "osm_id": "2578059652", "code": 2301, "fclass": "restaurant", "name": "Маша" }, "geometry": { "type": "Point", "coordinates": [ 19.8466052, 45.2555893 ] } },
{ "type": "Feature", "properties": { "osm_id": "2578061691", "code": 2304, "fclass": "pub", "name": "Гусан" }, "geometry": { "type": "Point", "coordinates": [ 19.8468519, 45.2555005 ] } },
{ "type": "Feature", "properties": { "osm_id": "2582052748", "code": 2303, "fclass": "cafe", "name": "Caffe New York" }, "geometry": { "type": "Point", "coordinates": [ 19.8490357, 45.2423914 ] } },
{ "type": "Feature", "properties": { "osm_id": "2582053962", "code": 2303, "fclass": "cafe", "name": "Кафе Код господина" }, "geometry": { "type": "Point", "coordinates": [ 19.8487082, 45.2423971 ] } },
{ "type": "Feature", "properties": { "osm_id": "2585158801", "code": 2303, "fclass": "cafe", "name": "Hostel & caffe bar ROOKIES" }, "geometry": { "type": "Point", "coordinates": [ 19.8405199, 45.2525966 ] } },
{ "type": "Feature", "properties": { "osm_id": "2606381141", "code": 2302, "fclass": "fast_food", "name": "Index Mirjana" }, "geometry": { "type": "Point", "coordinates": [ 19.8466858, 45.2547635 ] } },
{ "type": "Feature", "properties": { "osm_id": "2606384880", "code": 2304, "fclass": "pub", "name": "Shamrock" }, "geometry": { "type": "Point", "coordinates": [ 19.8458957, 45.256878 ] } },
{ "type": "Feature", "properties": { "osm_id": "2606386212", "code": 2202, "fclass": "nightclub", "name": "Лазино теле" }, "geometry": { "type": "Point", "coordinates": [ 19.8451709, 45.256873 ] } },
{ "type": "Feature", "properties": { "osm_id": "2606388086", "code": 2304, "fclass": "pub", "name": "Лондон" }, "geometry": { "type": "Point", "coordinates": [ 19.8451221, 45.2567407 ] } },
{ "type": "Feature", "properties": { "osm_id": "2609485566", "code": 2301, "fclass": "restaurant", "name": "Оаза" }, "geometry": { "type": "Point", "coordinates": [ 19.8471965, 45.2391622 ] } },
{ "type": "Feature", "properties": { "osm_id": "2612091797", "code": 2902, "fclass": "bench", "name": null }, "geometry": { "type": "Point", "coordinates": [ 19.8423119, 45.2408069 ] } },
{ "type": "Feature", "properties": { "osm_id": "2612091798", "code": 2902, "fclass": "bench", "name": null }, "geometry": { "type": "Point", "coordinates": [ 19.8421088, 45.2408292 ] } },
{ "type": "Feature", "properties": { "osm_id": "2612091799", "code": 2902, "fclass": "bench", "name": null }, "geometry": { "type": "Point", "coordinates": [ 19.8423347, 45.2408396 ] } },
{ "type": "Feature", "properties": { "osm_id": "2612091800", "code": 2902, "fclass": "bench", "name": null }, "geometry": { "type": "Point", "coordinates": [ 19.8421273, 45.2408566 ] } },
{ "type": "Feature", "properties": { "osm_id": "2612091801", "code": 2902, "fclass": "bench", "name": null }, "geometry": { "type": "Point", "coordinates": [ 19.842151, 45.2408863 ] } },
{ "type": "Feature", "properties": { "osm_id": "2612091803", "code": 2902, "fclass": "bench", "name": null }, "geometry": { "type": "Point", "coordinates": [ 19.8423761, 45.2409044 ] } },
{ "type": "Feature", "properties": { "osm_id": "2612091804", "code": 2902, "fclass": "bench", "name": null }, "geometry": { "type": "Point", "coordinates": [ 19.8423947, 45.2409365 ] } },
{ "type": "Feature", "properties": { "osm_id": "2612091805", "code": 2902, "fclass": "bench", "name": null }, "geometry": { "type": "Point", "coordinates": [ 19.8421966, 45.2409672 ] } },
{ "type": "Feature", "properties": { "osm_id": "2612091807", "code": 2902, "fclass": "bench", "name": null }, "geometry": { "type": "Point", "coordinates": [ 19.8422219, 45.2410016 ] } },
{ "type": "Feature", "properties": { "osm_id": "2612091808", "code": 2902, "fclass": "bench", "name": null }, "geometry": { "type": "Point", "coordinates": [ 19.8422371, 45.2410278 ] } },
{ "type": "Feature", "properties": { "osm_id": "2612091811", "code": 2902, "fclass": "bench", "name": null }, "geometry": { "type": "Point", "coordinates": [ 19.8422557, 45.241155 ] } },
{ "type": "Feature", "properties": { "osm_id": "2612091812", "code": 2902, "fclass": "bench", "name": null }, "geometry": { "type": "Point", "coordinates": [ 19.8425934, 45.2411586 ] } },
{ "type": "Feature", "properties": { "osm_id": "2612091813", "code": 2902, "fclass": "bench", "name": null }, "geometry": { "type": "Point", "coordinates": [ 19.8422405, 45.2411847 ] } },
{ "type": "Feature", "properties": { "osm_id": "2612091814", "code": 2902, "fclass": "bench", "name": null }, "geometry": { "type": "Point", "coordinates": [ 19.8425748, 45.2411907 ] } },
{ "type": "Feature", "properties": { "osm_id": "2612091815", "code": 2902, "fclass": "bench", "name": null }, "geometry": { "type": "Point", "coordinates": [ 19.8422253, 45.2412085 ] } },
{ "type": "Feature", "properties": { "osm_id": "2612091817", "code": 2902, "fclass": "bench", "name": null }, "geometry": { "type": "Point", "coordinates": [ 19.8425546, 45.2412204 ] } },
{ "type": "Feature", "properties": { "osm_id": "2612091818", "code": 2902, "fclass": "bench", "name": null }, "geometry": { "type": "Point", "coordinates": [ 19.8423013, 45.2412567 ] } },
{ "type": "Feature", "properties": { "osm_id": "2612091819", "code": 2902, "fclass": "bench", "name": null }, "geometry": { "type": "Point", "coordinates": [ 19.8423393, 45.2412697 ] } },
{ "type": "Feature", "properties": { "osm_id": "2612091820", "code": 2902, "fclass": "bench", "name": null }, "geometry": { "type": "Point", "coordinates": [ 19.8423857, 45.2412816 ] } },
{ "type": "Feature", "properties": { "osm_id": "2622876367", "code": 2301, "fclass": "restaurant", "name": "Палачинкарница Пинокио" }, "geometry": { "type": "Point", "coordinates": [ 19.8472665, 45.2514438 ] } },
{ "type": "Feature", "properties": { "osm_id": "2681939895", "code": 2511, "fclass": "convenience", "name": "IDEA" }, "geometry": { "type": "Point", "coordinates": [ 19.8497523, 45.255947 ] } },
{ "type": "Feature", "properties": { "osm_id": "2682018618", "code": 2734, "fclass": "wayside_cross", "name": "Богојављенски крст" }, "geometry": { "type": "Point", "coordinates": [ 19.8479336, 45.2574816 ] } },
{ "type": "Feature", "properties": { "osm_id": "2682018618", "code": 2721, "fclass": "attraction", "name": "Богојављенски крст" }, "geometry": { "type": "Point", "coordinates": [ 19.8479336, 45.2574816 ] } },
{ "type": "Feature", "properties": { "osm_id": "2688393851", "code": 2502, "fclass": "bakery", "name": "Пекара Клас 021" }, "geometry": { "type": "Point", "coordinates": [ 19.8300086, 45.2636968 ] } },
{ "type": "Feature", "properties": { "osm_id": "2696703311", "code": 2305, "fclass": "bar", "name": "Изба" }, "geometry": { "type": "Point", "coordinates": [ 19.8418718, 45.252072 ] } },
{ "type": "Feature", "properties": { "osm_id": "2717148184", "code": 2513, "fclass": "florist", "name": "Цвет" }, "geometry": { "type": "Point", "coordinates": [ 19.8325224, 45.2610377 ] } },
{ "type": "Feature", "properties": { "osm_id": "2719978104", "code": 2405, "fclass": "hostel", "name": "Хостел 021" }, "geometry": { "type": "Point", "coordinates": [ 19.8414212, 45.2546174 ] } },
{ "type": "Feature", "properties": { "osm_id": "2734176767", "code": 2724, "fclass": "memorial", "name": "Лав Николајевич Толстој" }, "geometry": { "type": "Point", "coordinates": [ 19.8348703, 45.2459805 ] } },
{ "type": "Feature", "properties": { "osm_id": "2734310482", "code": 2502, "fclass": "bakery", "name": "Срце" }, "geometry": { "type": "Point", "coordinates": [ 19.8486579, 45.2582065 ] } },
{ "type": "Feature", "properties": { "osm_id": "2734310504", "code": 2302, "fclass": "fast_food", "name": "Bubi gril" }, "geometry": { "type": "Point", "coordinates": [ 19.824712, 45.2590731 ] } },
{ "type": "Feature", "properties": { "osm_id": "2735497111", "code": 2303, "fclass": "cafe", "name": "Matrix" }, "geometry": { "type": "Point", "coordinates": [ 19.8365893, 45.2513978 ] } },
{ "type": "Feature", "properties": { "osm_id": "2735542547", "code": 2902, "fclass": "bench", "name": null }, "geometry": { "type": "Point", "coordinates": [ 19.8343855, 45.250067 ] } },
{ "type": "Feature", "properties": { "osm_id": "2735542548", "code": 2902, "fclass": "bench", "name": null }, "geometry": { "type": "Point", "coordinates": [ 19.8343788, 45.2498748 ] } },
{ "type": "Feature", "properties": { "osm_id": "2735542549", "code": 2902, "fclass": "bench", "name": null }, "geometry": { "type": "Point", "coordinates": [ 19.8344124, 45.2500471 ] } },
{ "type": "Feature", "properties": { "osm_id": "2735542550", "code": 2902, "fclass": "bench", "name": null }, "geometry": { "type": "Point", "coordinates": [ 19.8345867, 45.2498951 ] } },
{ "type": "Feature", "properties": { "osm_id": "2735542551", "code": 2902, "fclass": "bench", "name": null }, "geometry": { "type": "Point", "coordinates": [ 19.8350145, 45.2498436 ] } },
{ "type": "Feature", "properties": { "osm_id": "2735542552", "code": 2902, "fclass": "bench", "name": null }, "geometry": { "type": "Point", "coordinates": [ 19.8345431, 45.2499357 ] } },
{ "type": "Feature", "properties": { "osm_id": "2747979184", "code": 2405, "fclass": "hostel", "name": "Лазин Хостел" }, "geometry": { "type": "Point", "coordinates": [ 19.8460142, 45.2565889 ] } },
{ "type": "Feature", "properties": { "osm_id": "2778402478", "code": 2101, "fclass": "pharmacy", "name": "\"Mr Tamara\"" }, "geometry": { "type": "Point", "coordinates": [ 19.8437579, 45.262162 ] } },
{ "type": "Feature", "properties": { "osm_id": "2820469380", "code": 2303, "fclass": "cafe", "name": "Moskva" }, "geometry": { "type": "Point", "coordinates": [ 19.8452103, 45.2481573 ] } },
{ "type": "Feature", "properties": { "osm_id": "2820471601", "code": 2301, "fclass": "restaurant", "name": "Concept bar&restaurant Kafemat" }, "geometry": { "type": "Point", "coordinates": [ 19.8442489, 45.2482483 ] } },
{ "type": "Feature", "properties": { "osm_id": "2820513031", "code": 2303, "fclass": "cafe", "name": "Индексова трибина" }, "geometry": { "type": "Point", "coordinates": [ 19.8538399, 45.2430389 ] } },
{ "type": "Feature", "properties": { "osm_id": "2930018011", "code": 2601, "fclass": "bank", "name": null }, "geometry": { "type": "Point", "coordinates": [ 19.8393101, 45.2471417 ] } },
{ "type": "Feature", "properties": { "osm_id": "2952275422", "code": 2083, "fclass": "kindergarten", "name": null }, "geometry": { "type": "Point", "coordinates": [ 19.8355274, 45.2381781 ] } },
{ "type": "Feature", "properties": { "osm_id": "2952531007", "code": 2304, "fclass": "pub", "name": "3bir Checkpoint" }, "geometry": { "type": "Point", "coordinates": [ 19.8387438, 45.247583 ] } },
{ "type": "Feature", "properties": { "osm_id": "2957151679", "code": 2502, "fclass": "bakery", "name": "Pekara Baker" }, "geometry": { "type": "Point", "coordinates": [ 19.8393603, 45.2484129 ] } },
{ "type": "Feature", "properties": { "osm_id": "2958394436", "code": 2502, "fclass": "bakery", "name": "Нова Палма Плус" }, "geometry": { "type": "Point", "coordinates": [ 19.846681, 45.2425577 ] } },
{ "type": "Feature", "properties": { "osm_id": "2958394438", "code": 2302, "fclass": "fast_food", "name": "Делишес" }, "geometry": { "type": "Point", "coordinates": [ 19.8464525, 45.2425417 ] } },
{ "type": "Feature", "properties": { "osm_id": "2958394439", "code": 2302, "fclass": "fast_food", "name": "Fud haus" }, "geometry": { "type": "Point", "coordinates": [ 19.8502001, 45.2467403 ] } },
{ "type": "Feature", "properties": { "osm_id": "2958394440", "code": 2303, "fclass": "cafe", "name": "babylon" }, "geometry": { "type": "Point", "coordinates": [ 19.846465, 45.2470315 ] } },
{ "type": "Feature", "properties": { "osm_id": "2958398091", "code": 2303, "fclass": "cafe", "name": "Филозоф" }, "geometry": { "type": "Point", "coordinates": [ 19.8536384, 45.2466534 ] } },
{ "type": "Feature", "properties": { "osm_id": "2958398092", "code": 2511, "fclass": "convenience", "name": null }, "geometry": { "type": "Point", "coordinates": [ 19.8437015, 45.2411879 ] } },
{ "type": "Feature", "properties": { "osm_id": "2958398093", "code": 2302, "fclass": "fast_food", "name": "Kukuriku" }, "geometry": { "type": "Point", "coordinates": [ 19.8427828, 45.2377972 ] } },
{ "type": "Feature", "properties": { "osm_id": "2958398095", "code": 2303, "fclass": "cafe", "name": "Grosseto" }, "geometry": { "type": "Point", "coordinates": [ 19.849718, 45.2483141 ] } },
{ "type": "Feature", "properties": { "osm_id": "2959902918", "code": 2303, "fclass": "cafe", "name": "FTN Klub" }, "geometry": { "type": "Point", "coordinates": [ 19.8515076, 45.2466527 ] } },
{ "type": "Feature", "properties": { "osm_id": "2959988134", "code": 2301, "fclass": "restaurant", "name": "Central Pub" }, "geometry": { "type": "Point", "coordinates": [ 19.8462113, 45.2545651 ] } },
{ "type": "Feature", "properties": { "osm_id": "2959993636", "code": 2301, "fclass": "restaurant", "name": "De Gusto" }, "geometry": { "type": "Point", "coordinates": [ 19.8336721, 45.2569805 ] } },
{ "type": "Feature", "properties": { "osm_id": "2962777345", "code": 2304, "fclass": "pub", "name": "Bife Oblomov" }, "geometry": { "type": "Point", "coordinates": [ 19.8451003, 45.2503892 ] } },
{ "type": "Feature", "properties": { "osm_id": "2962778104", "code": 2303, "fclass": "cafe", "name": "Nublu" }, "geometry": { "type": "Point", "coordinates": [ 19.8469523, 45.2520311 ] } },
{ "type": "Feature", "properties": { "osm_id": "2965051971", "code": 2304, "fclass": "pub", "name": "Gerila bar" }, "geometry": { "type": "Point", "coordinates": [ 19.8496511, 45.2571707 ] } },
{ "type": "Feature", "properties": { "osm_id": "2965207503", "code": 2202, "fclass": "nightclub", "name": "Kućerak" }, "geometry": { "type": "Point", "coordinates": [ 19.8450091, 45.2569366 ] } },
{ "type": "Feature", "properties": { "osm_id": "2965775087", "code": 2001, "fclass": "police", "name": "ПУ Нови Сад" }, "geometry": { "type": "Point", "coordinates": [ 19.8348481, 45.2610953 ] } },
{ "type": "Feature", "properties": { "osm_id": "2967354117", "code": 2001, "fclass": "police", "name": "ПУ Нови Сад" }, "geometry": { "type": "Point", "coordinates": [ 19.8358461, 45.2555428 ] } },
{ "type": "Feature", "properties": { "osm_id": "2967376320", "code": 2511, "fclass": "convenience", "name": "IDEA" }, "geometry": { "type": "Point", "coordinates": [ 19.8384643, 45.2500641 ] } },
{ "type": "Feature", "properties": { "osm_id": "2968937786", "code": 2304, "fclass": "pub", "name": "Mamut" }, "geometry": { "type": "Point", "coordinates": [ 19.847833, 45.2562279 ] } },
{ "type": "Feature", "properties": { "osm_id": "2968953010", "code": 2303, "fclass": "cafe", "name": "Fićkić" }, "geometry": { "type": "Point", "coordinates": [ 19.847951, 45.2561656 ] } },
{ "type": "Feature", "properties": { "osm_id": "2974350962", "code": 2251, "fclass": "sports_centre", "name": "Базени „Сајмиште“" }, "geometry": { "type": "Point", "coordinates": [ 19.8256454, 45.2532972 ] } },
{ "type": "Feature", "properties": { "osm_id": "2974350963", "code": 2251, "fclass": "sports_centre", "name": "Тениски клуб \"Нови Сад\"" }, "geometry": { "type": "Point", "coordinates": [ 19.8256623, 45.2544752 ] } },
{ "type": "Feature", "properties": { "osm_id": "2974411243", "code": 2511, "fclass": "convenience", "name": "Mikromarket PJ 33" }, "geometry": { "type": "Point", "coordinates": [ 19.8308495, 45.2549086 ] } },
{ "type": "Feature", "properties": { "osm_id": "2977651212", "code": 2083, "fclass": "kindergarten", "name": "Сунце" }, "geometry": { "type": "Point", "coordinates": [ 19.8300509, 45.2612041 ] } },
{ "type": "Feature", "properties": { "osm_id": "2987567867", "code": 2205, "fclass": "playground", "name": null }, "geometry": { "type": "Point", "coordinates": [ 19.826647, 45.2388987 ] } },
{ "type": "Feature", "properties": { "osm_id": "2989168390", "code": 2083, "fclass": "kindergarten", "name": "Чаролија" }, "geometry": { "type": "Point", "coordinates": [ 19.853034, 45.2536161 ] } },
{ "type": "Feature", "properties": { "osm_id": "2989225107", "code": 2303, "fclass": "cafe", "name": null }, "geometry": { "type": "Point", "coordinates": [ 19.8491576, 45.2492299 ] } },
{ "type": "Feature", "properties": { "osm_id": "2989225116", "code": 2302, "fclass": "fast_food", "name": "Amigos Chicken Wings" }, "geometry": { "type": "Point", "coordinates": [ 19.8412573, 45.2486419 ] } },
{ "type": "Feature", "properties": { "osm_id": "2989225132", "code": 2511, "fclass": "convenience", "name": "Mikromarket PJ 100" }, "geometry": { "type": "Point", "coordinates": [ 19.8513709, 45.2499976 ] } },
{ "type": "Feature", "properties": { "osm_id": "2989225554", "code": 2303, "fclass": "cafe", "name": "Coffee To Go" }, "geometry": { "type": "Point", "coordinates": [ 19.848263, 45.2505722 ] } },
{ "type": "Feature", "properties": { "osm_id": "2989225612", "code": 2302, "fclass": "fast_food", "name": "Caribic Pizza" }, "geometry": { "type": "Point", "coordinates": [ 19.8415288, 45.2487376 ] } },
{ "type": "Feature", "properties": { "osm_id": "2989225979", "code": 2084, "fclass": "college", "name": "ТИМС Факултет за спорт и туризам" }, "geometry": { "type": "Point", "coordinates": [ 19.8531159, 45.2497204 ] } },
{ "type": "Feature", "properties": { "osm_id": "2996604899", "code": 2542, "fclass": "bicycle_shop", "name": "Cikloteka" }, "geometry": { "type": "Point", "coordinates": [ 19.844891, 45.2525361 ] } },
{ "type": "Feature", "properties": { "osm_id": "3017653906", "code": 2008, "fclass": "town_hall", "name": "Месна Заједница Дунав" }, "geometry": { "type": "Point", "coordinates": [ 19.8547216, 45.2585604 ] } },
{ "type": "Feature", "properties": { "osm_id": "3099668964", "code": 2511, "fclass": "convenience", "name": "Микромаркет" }, "geometry": { "type": "Point", "coordinates": [ 19.8461622, 45.2447564 ] } },
{ "type": "Feature", "properties": { "osm_id": "3099672765", "code": 2501, "fclass": "supermarket", "name": "Univerexport" }, "geometry": { "type": "Point", "coordinates": [ 19.8450461, 45.2457717 ] } },
{ "type": "Feature", "properties": { "osm_id": "3118845528", "code": 2301, "fclass": "restaurant", "name": "Ananda vegan restaurant" }, "geometry": { "type": "Point", "coordinates": [ 19.8395358, 45.249277 ] } },
{ "type": "Feature", "properties": { "osm_id": "3118846229", "code": 2561, "fclass": "hairdresser", "name": "Bronx Haircut" }, "geometry": { "type": "Point", "coordinates": [ 19.8439992, 45.2416936 ] } },
{ "type": "Feature", "properties": { "osm_id": "3118846230", "code": 2561, "fclass": "hairdresser", "name": "Harizma2011" }, "geometry": { "type": "Point", "coordinates": [ 19.8438562, 45.2416486 ] } },
{ "type": "Feature", "properties": { "osm_id": "3118846231", "code": 2503, "fclass": "kiosk", "name": "Trafika Afrika" }, "geometry": { "type": "Point", "coordinates": [ 19.8461554, 45.2425285 ] } },
{ "type": "Feature", "properties": { "osm_id": "3118846232", "code": 2503, "fclass": "kiosk", "name": null }, "geometry": { "type": "Point", "coordinates": [ 19.8465059, 45.242544 ] } },
{ "type": "Feature", "properties": { "osm_id": "3118846236", "code": 2303, "fclass": "cafe", "name": "Соња" }, "geometry": { "type": "Point", "coordinates": [ 19.8518644, 45.2456933 ] } },
{ "type": "Feature", "properties": { "osm_id": "3118846239", "code": 2503, "fclass": "kiosk", "name": null }, "geometry": { "type": "Point", "coordinates": [ 19.8516204, 45.2460329 ] } },
{ "type": "Feature", "properties": { "osm_id": "3118846249", "code": 2503, "fclass": "kiosk", "name": null }, "geometry": { "type": "Point", "coordinates": [ 19.849332, 45.2481518 ] } },
{ "type": "Feature", "properties": { "osm_id": "3118846250", "code": 2303, "fclass": "cafe", "name": "Caffe Amico" }, "geometry": { "type": "Point", "coordinates": [ 19.8489658, 45.2491622 ] } },
{ "type": "Feature", "properties": { "osm_id": "3132855734", "code": 2521, "fclass": "gift_shop", "name": "Gadget 4 Gift" }, "geometry": { "type": "Point", "coordinates": [ 19.8488852, 45.2564693 ] } },
{ "type": "Feature", "properties": { "osm_id": "3172398093", "code": 2301, "fclass": "restaurant", "name": "Дунавска тераса" }, "geometry": { "type": "Point", "coordinates": [ 19.836431, 45.2305654 ] } },
{ "type": "Feature", "properties": { "osm_id": "3172398104", "code": 2202, "fclass": "nightclub", "name": "Кристал" }, "geometry": { "type": "Point", "coordinates": [ 19.839091, 45.2311188 ] } },
{ "type": "Feature", "properties": { "osm_id": "3172398108", "code": 2202, "fclass": "nightclub", "name": "Два галеба" }, "geometry": { "type": "Point", "coordinates": [ 19.8375507, 45.2304774 ] } },
{ "type": "Feature", "properties": { "osm_id": "3172398109", "code": 2303, "fclass": "cafe", "name": "Џоли Роџер" }, "geometry": { "type": "Point", "coordinates": [ 19.8385945, 45.2308913 ] } },
{ "type": "Feature", "properties": { "osm_id": "3172398115", "code": 2301, "fclass": "restaurant", "name": "Мон Ами" }, "geometry": { "type": "Point", "coordinates": [ 19.8382279, 45.2306934 ] } },
{ "type": "Feature", "properties": { "osm_id": "3172398129", "code": 2301, "fclass": "restaurant", "name": "Aqua Royal" }, "geometry": { "type": "Point", "coordinates": [ 19.8413794, 45.232108 ] } },
{ "type": "Feature", "properties": { "osm_id": "3172398131", "code": 2301, "fclass": "restaurant", "name": "Пикник" }, "geometry": { "type": "Point", "coordinates": [ 19.8348561, 45.2300794 ] } },
{ "type": "Feature", "properties": { "osm_id": "3172398137", "code": 2303, "fclass": "cafe", "name": "Ски-бар" }, "geometry": { "type": "Point", "coordinates": [ 19.8400015, 45.2315004 ] } },
{ "type": "Feature", "properties": { "osm_id": "3282661266", "code": 2601, "fclass": "bank", "name": "Banca Intesa" }, "geometry": { "type": "Point", "coordinates": [ 19.846959, 45.2433299 ] } },
{ "type": "Feature", "properties": { "osm_id": "3282661268", "code": 2303, "fclass": "cafe", "name": "Макијато Факс" }, "geometry": { "type": "Point", "coordinates": [ 19.8519293, 45.2493001 ] } },
{ "type": "Feature", "properties": { "osm_id": "3282661269", "code": 2303, "fclass": "cafe", "name": "Shakespeare 021" }, "geometry": { "type": "Point", "coordinates": [ 19.8373495, 45.2419523 ] } },
{ "type": "Feature", "properties": { "osm_id": "3282661270", "code": 2602, "fclass": "atm", "name": "Intesa Sanpaolo" }, "geometry": { "type": "Point", "coordinates": [ 19.8458632, 45.2476714 ] } },
{ "type": "Feature", "properties": { "osm_id": "3707927366", "code": 2302, "fclass": "fast_food", "name": "Роштиљ ТУТА" }, "geometry": { "type": "Point", "coordinates": [ 19.8411095, 45.2552056 ] } },
{ "type": "Feature", "properties": { "osm_id": "3711598728", "code": 2501, "fclass": "supermarket", "name": "Univerexport" }, "geometry": { "type": "Point", "coordinates": [ 19.8243897, 45.2636132 ] } },
{ "type": "Feature", "properties": { "osm_id": "3750927600", "code": 2303, "fclass": "cafe", "name": "Baila cafe" }, "geometry": { "type": "Point", "coordinates": [ 19.8371336, 45.2475351 ] } },
{ "type": "Feature", "properties": { "osm_id": "3750927601", "code": 2303, "fclass": "cafe", "name": "Coffe House" }, "geometry": { "type": "Point", "coordinates": [ 19.8415648, 45.2483375 ] } },
{ "type": "Feature", "properties": { "osm_id": "3750927604", "code": 2301, "fclass": "restaurant", "name": "Kutlača Bar" }, "geometry": { "type": "Point", "coordinates": [ 19.8399535, 45.2479544 ] } },
{ "type": "Feature", "properties": { "osm_id": "3750934194", "code": 2561, "fclass": "hairdresser", "name": "Beauty Unica" }, "geometry": { "type": "Point", "coordinates": [ 19.8378428, 45.2476107 ] } },
{ "type": "Feature", "properties": { "osm_id": "3907204857", "code": 2205, "fclass": "playground", "name": "Scenario" }, "geometry": { "type": "Point", "coordinates": [ 19.8249402, 45.2517168 ] } },
{ "type": "Feature", "properties": { "osm_id": "3928365300", "code": 2902, "fclass": "bench", "name": null }, "geometry": { "type": "Point", "coordinates": [ 19.8490261, 45.2575187 ] } },
{ "type": "Feature", "properties": { "osm_id": "3928365301", "code": 2902, "fclass": "bench", "name": null }, "geometry": { "type": "Point", "coordinates": [ 19.8489724, 45.2575287 ] } },
{ "type": "Feature", "properties": { "osm_id": "3928365302", "code": 2902, "fclass": "bench", "name": null }, "geometry": { "type": "Point", "coordinates": [ 19.8497068, 45.2576285 ] } },
{ "type": "Feature", "properties": { "osm_id": "3928365304", "code": 2902, "fclass": "bench", "name": null }, "geometry": { "type": "Point", "coordinates": [ 19.8496564, 45.2576388 ] } },
{ "type": "Feature", "properties": { "osm_id": "3928365305", "code": 2902, "fclass": "bench", "name": null }, "geometry": { "type": "Point", "coordinates": [ 19.8496003, 45.2576518 ] } },
{ "type": "Feature", "properties": { "osm_id": "3928365307", "code": 2902, "fclass": "bench", "name": null }, "geometry": { "type": "Point", "coordinates": [ 19.8495467, 45.2576628 ] } },
{ "type": "Feature", "properties": { "osm_id": "4029633090", "code": 2301, "fclass": "restaurant", "name": "Modena" }, "geometry": { "type": "Point", "coordinates": [ 19.8456602, 45.2548563 ] } },
{ "type": "Feature", "properties": { "osm_id": "4029650636", "code": 2601, "fclass": "bank", "name": "Komercijalna banka" }, "geometry": { "type": "Point", "coordinates": [ 19.8468746, 45.2546423 ] } },
{ "type": "Feature", "properties": { "osm_id": "4029698696", "code": 2501, "fclass": "supermarket", "name": "Univerexport" }, "geometry": { "type": "Point", "coordinates": [ 19.8391333, 45.2468051 ] } },
{ "type": "Feature", "properties": { "osm_id": "4029699093", "code": 2502, "fclass": "bakery", "name": "Klas 031" }, "geometry": { "type": "Point", "coordinates": [ 19.839311, 45.247093 ] } },
{ "type": "Feature", "properties": { "osm_id": "4029699690", "code": 2601, "fclass": "bank", "name": "Raiffeisen bank" }, "geometry": { "type": "Point", "coordinates": [ 19.8382935, 45.2479686 ] } },
{ "type": "Feature", "properties": { "osm_id": "4029731299", "code": 2601, "fclass": "bank", "name": "Banca Intesa" }, "geometry": { "type": "Point", "coordinates": [ 19.8368981, 45.2511296 ] } },
{ "type": "Feature", "properties": { "osm_id": "4029742493", "code": 2601, "fclass": "bank", "name": "AIK banka" }, "geometry": { "type": "Point", "coordinates": [ 19.8367475, 45.2515513 ] } },
{ "type": "Feature", "properties": { "osm_id": "4029743489", "code": 2601, "fclass": "bank", "name": "NLB Komercijalna Banka" }, "geometry": { "type": "Point", "coordinates": [ 19.838419, 45.248572 ] } },
{ "type": "Feature", "properties": { "osm_id": "4029743518", "code": 2601, "fclass": "bank", "name": "Komercijalna banka" }, "geometry": { "type": "Point", "coordinates": [ 19.8342918, 45.2559768 ] } },
{ "type": "Feature", "properties": { "osm_id": "4029745590", "code": 2601, "fclass": "bank", "name": "UniCredit Bank" }, "geometry": { "type": "Point", "coordinates": [ 19.838143, 45.249076 ] } },
{ "type": "Feature", "properties": { "osm_id": "4029748491", "code": 2511, "fclass": "convenience", "name": "Арома" }, "geometry": { "type": "Point", "coordinates": [ 19.834645, 45.255317 ] } },
{ "type": "Feature", "properties": { "osm_id": "4029748494", "code": 2601, "fclass": "bank", "name": "РБА банка" }, "geometry": { "type": "Point", "coordinates": [ 19.8338621, 45.2568598 ] } },
{ "type": "Feature", "properties": { "osm_id": "4029748791", "code": 2601, "fclass": "bank", "name": "OTP banka" }, "geometry": { "type": "Point", "coordinates": [ 19.837633, 45.250041 ] } },
{ "type": "Feature", "properties": { "osm_id": "4029749804", "code": 2302, "fclass": "fast_food", "name": "Cream" }, "geometry": { "type": "Point", "coordinates": [ 19.835713, 45.253002 ] } },
{ "type": "Feature", "properties": { "osm_id": "4029751696", "code": 2601, "fclass": "bank", "name": "Banka Intesa" }, "geometry": { "type": "Point", "coordinates": [ 19.8307747, 45.2623859 ] } },
{ "type": "Feature", "properties": { "osm_id": "4029752490", "code": 2401, "fclass": "hotel", "name": "Hotel Panorama Garni" }, "geometry": { "type": "Point", "coordinates": [ 19.8366762, 45.2514291 ] } },
{ "type": "Feature", "properties": { "osm_id": "4029752693", "code": 2121, "fclass": "dentist", "name": "dental scan" }, "geometry": { "type": "Point", "coordinates": [ 19.8353613, 45.253465 ] } },
{ "type": "Feature", "properties": { "osm_id": "4029752789", "code": 2084, "fclass": "college", "name": "Fakultet za pravne i poslovne studjje" }, "geometry": { "type": "Point", "coordinates": [ 19.837191, 45.250689 ] } },
{ "type": "Feature", "properties": { "osm_id": "4029762696", "code": 2601, "fclass": "bank", "name": "pireus banka" }, "geometry": { "type": "Point", "coordinates": [ 19.835128, 45.25438 ] } },
{ "type": "Feature", "properties": { "osm_id": "4029762697", "code": 2101, "fclass": "pharmacy", "name": "Galen Pharm" }, "geometry": { "type": "Point", "coordinates": [ 19.833707, 45.257129 ] } },
{ "type": "Feature", "properties": { "osm_id": "4029762698", "code": 2120, "fclass": "doctors", "name": "lekarska komora" }, "geometry": { "type": "Point", "coordinates": [ 19.8332611, 45.2576887 ] } },
{ "type": "Feature", "properties": { "osm_id": "4029762700", "code": 2305, "fclass": "bar", "name": "Incontro" }, "geometry": { "type": "Point", "coordinates": [ 19.8331001, 45.2582216 ] } },
{ "type": "Feature", "properties": { "osm_id": "4029762903", "code": 2305, "fclass": "bar", "name": "Charlie tango" }, "geometry": { "type": "Point", "coordinates": [ 19.8335416, 45.2574065 ] } },
{ "type": "Feature", "properties": { "osm_id": "4029763090", "code": 2515, "fclass": "bookshop", "name": "bulevar books" }, "geometry": { "type": "Point", "coordinates": [ 19.8448925, 45.2530868 ] } },
{ "type": "Feature", "properties": { "osm_id": "4029767289", "code": 2505, "fclass": "department_store", "name": "Elephant City" }, "geometry": { "type": "Point", "coordinates": [ 19.8352472, 45.2537997 ] } },
{ "type": "Feature", "properties": { "osm_id": "4029767317", "code": 2601, "fclass": "bank", "name": "3 Банка" }, "geometry": { "type": "Point", "coordinates": [ 19.8301579, 45.2633049 ] } },
{ "type": "Feature", "properties": { "osm_id": "4029771489", "code": 2101, "fclass": "pharmacy", "name": "Tilia" }, "geometry": { "type": "Point", "coordinates": [ 19.835, 45.254743 ] } },
{ "type": "Feature", "properties": { "osm_id": "4029773391", "code": 2082, "fclass": "school", "name": "OS \"Jovan Popovic\"" }, "geometry": { "type": "Point", "coordinates": [ 19.845535, 45.241614 ] } },
{ "type": "Feature", "properties": { "osm_id": "4029775695", "code": 2101, "fclass": "pharmacy", "name": "Galen Pharm" }, "geometry": { "type": "Point", "coordinates": [ 19.831405, 45.261166 ] } },
{ "type": "Feature", "properties": { "osm_id": "4029795290", "code": 2302, "fclass": "fast_food", "name": "Минута" }, "geometry": { "type": "Point", "coordinates": [ 19.8311209, 45.2618126 ] } },
{ "type": "Feature", "properties": { "osm_id": "4029798889", "code": 2303, "fclass": "cafe", "name": "Стих" }, "geometry": { "type": "Point", "coordinates": [ 19.8305044, 45.2629053 ] } },
{ "type": "Feature", "properties": { "osm_id": "4029799689", "code": 2101, "fclass": "pharmacy", "name": "Ибис" }, "geometry": { "type": "Point", "coordinates": [ 19.8304023, 45.2631101 ] } },
{ "type": "Feature", "properties": { "osm_id": "4029799989", "code": 2301, "fclass": "restaurant", "name": "Велики Пекинг" }, "geometry": { "type": "Point", "coordinates": [ 19.8301285, 45.2635557 ] } },
{ "type": "Feature", "properties": { "osm_id": "4030947991", "code": 2101, "fclass": "pharmacy", "name": "Una" }, "geometry": { "type": "Point", "coordinates": [ 19.829986, 45.241282 ] } },
{ "type": "Feature", "properties": { "osm_id": "4031074579", "code": 2303, "fclass": "cafe", "name": "Витраж" }, "geometry": { "type": "Point", "coordinates": [ 19.843376, 45.244077 ] } },
{ "type": "Feature", "properties": { "osm_id": "4031080194", "code": 2601, "fclass": "bank", "name": "Erste Bank" }, "geometry": { "type": "Point", "coordinates": [ 19.843735, 45.244139 ] } },
{ "type": "Feature", "properties": { "osm_id": "4031089691", "code": 2502, "fclass": "bakery", "name": "Mafin 021" }, "geometry": { "type": "Point", "coordinates": [ 19.843443, 45.244083 ] } },
{ "type": "Feature", "properties": { "osm_id": "4031100131", "code": 2601, "fclass": "bank", "name": "Banka Poštanska Stedionica" }, "geometry": { "type": "Point", "coordinates": [ 19.8464641, 45.2448521 ] } },
{ "type": "Feature", "properties": { "osm_id": "4031100192", "code": 2529, "fclass": "beauty_shop", "name": "Aluna" }, "geometry": { "type": "Point", "coordinates": [ 19.835021, 45.242601 ] } },
{ "type": "Feature", "properties": { "osm_id": "4031117989", "code": 2601, "fclass": "bank", "name": "ProCredit" }, "geometry": { "type": "Point", "coordinates": [ 19.845653, 45.2445871 ] } },
{ "type": "Feature", "properties": { "osm_id": "4031121593", "code": 2101, "fclass": "pharmacy", "name": "Biljna Apoteka" }, "geometry": { "type": "Point", "coordinates": [ 19.832044, 45.241842 ] } },
{ "type": "Feature", "properties": { "osm_id": "4031121690", "code": 2503, "fclass": "kiosk", "name": "New place" }, "geometry": { "type": "Point", "coordinates": [ 19.832197, 45.241928 ] } },
{ "type": "Feature", "properties": { "osm_id": "4031144989", "code": 2303, "fclass": "cafe", "name": "Pastis" }, "geometry": { "type": "Point", "coordinates": [ 19.828809, 45.254248 ] } },
{ "type": "Feature", "properties": { "osm_id": "4031147594", "code": 2502, "fclass": "bakery", "name": "Pekara Kao Nekad" }, "geometry": { "type": "Point", "coordinates": [ 19.830668, 45.241468 ] } },
{ "type": "Feature", "properties": { "osm_id": "4031147695", "code": 2302, "fclass": "fast_food", "name": "Гозо" }, "geometry": { "type": "Point", "coordinates": [ 19.83191, 45.2418 ] } },
{ "type": "Feature", "properties": { "osm_id": "4031147696", "code": 2101, "fclass": "pharmacy", "name": "Apoteka Centar" }, "geometry": { "type": "Point", "coordinates": [ 19.830716, 45.241488 ] } },
{ "type": "Feature", "properties": { "osm_id": "4031147772", "code": 2101, "fclass": "pharmacy", "name": "Apoteka Biljana&Luka" }, "geometry": { "type": "Point", "coordinates": [ 19.829871, 45.24129 ] } },
{ "type": "Feature", "properties": { "osm_id": "4031147992", "code": 2561, "fclass": "hairdresser", "name": "Nik Men's Hairdressing" }, "geometry": { "type": "Point", "coordinates": [ 19.830231, 45.241356 ] } },
{ "type": "Feature", "properties": { "osm_id": "4031148196", "code": 2302, "fclass": "fast_food", "name": "Pizza Cool" }, "geometry": { "type": "Point", "coordinates": [ 19.829469, 45.241177 ] } },
{ "type": "Feature", "properties": { "osm_id": "4031148290", "code": 2101, "fclass": "pharmacy", "name": "Apoteka Cebtar" }, "geometry": { "type": "Point", "coordinates": [ 19.830735, 45.241475 ] } },
{ "type": "Feature", "properties": { "osm_id": "4031166701", "code": 2513, "fclass": "florist", "name": "Cvećara Dragana S" }, "geometry": { "type": "Point", "coordinates": [ 19.8259713, 45.2398416 ] } },
{ "type": "Feature", "properties": { "osm_id": "4031171489", "code": 2301, "fclass": "restaurant", "name": "Dizni" }, "geometry": { "type": "Point", "coordinates": [ 19.828785, 45.2410275 ] } },
{ "type": "Feature", "properties": { "osm_id": "4031216292", "code": 2101, "fclass": "pharmacy", "name": "Јанковић" }, "geometry": { "type": "Point", "coordinates": [ 19.831167, 45.238145 ] } },
{ "type": "Feature", "properties": { "osm_id": "4031216396", "code": 2502, "fclass": "bakery", "name": "Европа" }, "geometry": { "type": "Point", "coordinates": [ 19.8257563, 45.2402464 ] } },
{ "type": "Feature", "properties": { "osm_id": "4031216796", "code": 2502, "fclass": "bakery", "name": "As Pek" }, "geometry": { "type": "Point", "coordinates": [ 19.830507, 45.237934 ] } },
{ "type": "Feature", "properties": { "osm_id": "4031231090", "code": 2111, "fclass": "clinic", "name": "Poliklinika Healthmedic" }, "geometry": { "type": "Point", "coordinates": [ 19.829726, 45.237745 ] } },
{ "type": "Feature", "properties": { "osm_id": "4031249589", "code": 2501, "fclass": "supermarket", "name": "NS Supermarket" }, "geometry": { "type": "Point", "coordinates": [ 19.8310043, 45.2381005 ] } },
{ "type": "Feature", "properties": { "osm_id": "4031252489", "code": 2502, "fclass": "bakery", "name": "Пекара Ле Бон" }, "geometry": { "type": "Point", "coordinates": [ 19.8333207, 45.2387571 ] } },
{ "type": "Feature", "properties": { "osm_id": "4031256100", "code": 2601, "fclass": "bank", "name": "Erste Bank" }, "geometry": { "type": "Point", "coordinates": [ 19.8370398, 45.239777 ] } },
{ "type": "Feature", "properties": { "osm_id": "4031258789", "code": 2301, "fclass": "restaurant", "name": "Гарибалди" }, "geometry": { "type": "Point", "coordinates": [ 19.8360434, 45.2391885 ] } },
{ "type": "Feature", "properties": { "osm_id": "4031278989", "code": 2303, "fclass": "cafe", "name": "Barabar" }, "geometry": { "type": "Point", "coordinates": [ 19.8460992, 45.2425232 ] } },
{ "type": "Feature", "properties": { "osm_id": "4031333589", "code": 2513, "fclass": "florist", "name": "Пеперминт" }, "geometry": { "type": "Point", "coordinates": [ 19.8331771, 45.2416109 ] } },
{ "type": "Feature", "properties": { "osm_id": "4031333790", "code": 2513, "fclass": "florist", "name": "Cvecara Cartier" }, "geometry": { "type": "Point", "coordinates": [ 19.8363304, 45.2422688 ] } },
{ "type": "Feature", "properties": { "osm_id": "4031335089", "code": 2101, "fclass": "pharmacy", "name": "Apoteka BENU" }, "geometry": { "type": "Point", "coordinates": [ 19.8348364, 45.2419062 ] } },
{ "type": "Feature", "properties": { "osm_id": "4031336389", "code": 2501, "fclass": "supermarket", "name": "Univerexport" }, "geometry": { "type": "Point", "coordinates": [ 19.837178, 45.2422462 ] } },
{ "type": "Feature", "properties": { "osm_id": "4034254889", "code": 2001, "fclass": "police", "name": "MUP,šalter sala za izdavanje dokumenata" }, "geometry": { "type": "Point", "coordinates": [ 19.8438781, 45.2406598 ] } },
{ "type": "Feature", "properties": { "osm_id": "4034770191", "code": 2601, "fclass": "bank", "name": "Erste Bank" }, "geometry": { "type": "Point", "coordinates": [ 19.8310719, 45.2634802 ] } },
{ "type": "Feature", "properties": { "osm_id": "4034810090", "code": 2501, "fclass": "supermarket", "name": "Biolučar" }, "geometry": { "type": "Point", "coordinates": [ 19.8314095, 45.2627909 ] } },
{ "type": "Feature", "properties": { "osm_id": "4034814190", "code": 2301, "fclass": "restaurant", "name": "Savoca" }, "geometry": { "type": "Point", "coordinates": [ 19.8329867, 45.2599946 ] } },
{ "type": "Feature", "properties": { "osm_id": "4034828490", "code": 2511, "fclass": "convenience", "name": "IDEA" }, "geometry": { "type": "Point", "coordinates": [ 19.8318188, 45.262092 ] } },
{ "type": "Feature", "properties": { "osm_id": "4034828491", "code": 2544, "fclass": "furniture_shop", "name": "Simpo" }, "geometry": { "type": "Point", "coordinates": [ 19.8322907, 45.2613393 ] } },
{ "type": "Feature", "properties": { "osm_id": "4034828492", "code": 2501, "fclass": "supermarket", "name": "Maxi" }, "geometry": { "type": "Point", "coordinates": [ 19.8316231, 45.260906 ] } },
{ "type": "Feature", "properties": { "osm_id": "4034844389", "code": 2601, "fclass": "bank", "name": "Поштанска штедионица" }, "geometry": { "type": "Point", "coordinates": [ 19.8315614, 45.2625507 ] } },
{ "type": "Feature", "properties": { "osm_id": "4034848089", "code": 2502, "fclass": "bakery", "name": "Pekara Evropa" }, "geometry": { "type": "Point", "coordinates": [ 19.8315808, 45.262505 ] } },
{ "type": "Feature", "properties": { "osm_id": "4034859889", "code": 2601, "fclass": "bank", "name": "Addiko Bank" }, "geometry": { "type": "Point", "coordinates": [ 19.8316205, 45.2607549 ] } },
{ "type": "Feature", "properties": { "osm_id": "4034871189", "code": 2568, "fclass": "laundry", "name": "Aqua Clean" }, "geometry": { "type": "Point", "coordinates": [ 19.8327926, 45.2603169 ] } },
{ "type": "Feature", "properties": { "osm_id": "4034872389", "code": 2502, "fclass": "bakery", "name": "Hleb i Kifle" }, "geometry": { "type": "Point", "coordinates": [ 19.8329816, 45.260068 ] } },
{ "type": "Feature", "properties": { "osm_id": "4034882289", "code": 2514, "fclass": "chemist", "name": "Lilly" }, "geometry": { "type": "Point", "coordinates": [ 19.8330059, 45.2599554 ] } },
{ "type": "Feature", "properties": { "osm_id": "4034883589", "code": 2519, "fclass": "optician", "name": "Optika \"Bulevar\"" }, "geometry": { "type": "Point", "coordinates": [ 19.8331895, 45.2596599 ] } },
{ "type": "Feature", "properties": { "osm_id": "4034890191", "code": 2516, "fclass": "butcher", "name": "Mesara \"Duda\"" }, "geometry": { "type": "Point", "coordinates": [ 19.8366442, 45.2533914 ] } },
{ "type": "Feature", "properties": { "osm_id": "4034890489", "code": 2512, "fclass": "clothes", "name": "Duga Star" }, "geometry": { "type": "Point", "coordinates": [ 19.8335865, 45.2589614 ] } },
{ "type": "Feature", "properties": { "osm_id": "4034893489", "code": 2101, "fclass": "pharmacy", "name": "Viva" }, "geometry": { "type": "Point", "coordinates": [ 19.8340774, 45.2580891 ] } },
{ "type": "Feature", "properties": { "osm_id": "4034893490", "code": 2519, "fclass": "optician", "name": null }, "geometry": { "type": "Point", "coordinates": [ 19.8357216, 45.2549851 ] } },
{ "type": "Feature", "properties": { "osm_id": "4034895189", "code": 2512, "fclass": "clothes", "name": "Trefolino" }, "geometry": { "type": "Point", "coordinates": [ 19.8341015, 45.2580136 ] } },
{ "type": "Feature", "properties": { "osm_id": "4034895190", "code": 2101, "fclass": "pharmacy", "name": "Biljana&Luka" }, "geometry": { "type": "Point", "coordinates": [ 19.8346111, 45.2570846 ] } },
{ "type": "Feature", "properties": { "osm_id": "4034900989", "code": 2501, "fclass": "supermarket", "name": "Sova market" }, "geometry": { "type": "Point", "coordinates": [ 19.8345491, 45.2572179 ] } },
{ "type": "Feature", "properties": { "osm_id": "4034900992", "code": 2512, "fclass": "clothes", "name": "Nexus" }, "geometry": { "type": "Point", "coordinates": [ 19.8358956, 45.2546983 ] } },
{ "type": "Feature", "properties": { "osm_id": "4034903889", "code": 2502, "fclass": "bakery", "name": "Pekarium" }, "geometry": { "type": "Point", "coordinates": [ 19.834587, 45.2571489 ] } },
{ "type": "Feature", "properties": { "osm_id": "4034905290", "code": 2519, "fclass": "optician", "name": "Optika \"Yason\"" }, "geometry": { "type": "Point", "coordinates": [ 19.832983, 45.2584818 ] } },
{ "type": "Feature", "properties": { "osm_id": "4034907191", "code": 2505, "fclass": "department_store", "name": null }, "geometry": { "type": "Point", "coordinates": [ 19.8359089, 45.2546716 ] } },
{ "type": "Feature", "properties": { "osm_id": "4034907889", "code": 2512, "fclass": "clothes", "name": "Itea Jeans" }, "geometry": { "type": "Point", "coordinates": [ 19.8356783, 45.2550717 ] } },
{ "type": "Feature", "properties": { "osm_id": "4034912589", "code": 2303, "fclass": "cafe", "name": "In Contro" }, "geometry": { "type": "Point", "coordinates": [ 19.8329267, 45.2586177 ] } },
{ "type": "Feature", "properties": { "osm_id": "4034912590", "code": 2501, "fclass": "supermarket", "name": "IDEA Super" }, "geometry": { "type": "Point", "coordinates": [ 19.8358074, 45.2548567 ] } },
{ "type": "Feature", "properties": { "osm_id": "4034913989", "code": 2505, "fclass": "department_store", "name": "Panda" }, "geometry": { "type": "Point", "coordinates": [ 19.8322937, 45.2595995 ] } },
{ "type": "Feature", "properties": { "osm_id": "4034914789", "code": 2101, "fclass": "pharmacy", "name": "DM" }, "geometry": { "type": "Point", "coordinates": [ 19.8321837, 45.2598525 ] } },
{ "type": "Feature", "properties": { "osm_id": "4034917990", "code": 2512, "fclass": "clothes", "name": "Koko" }, "geometry": { "type": "Point", "coordinates": [ 19.8359715, 45.2545759 ] } },
{ "type": "Feature", "properties": { "osm_id": "4034918689", "code": 2512, "fclass": "clothes", "name": "Exact" }, "geometry": { "type": "Point", "coordinates": [ 19.8358371, 45.2547922 ] } },
{ "type": "Feature", "properties": { "osm_id": "4036910690", "code": 2501, "fclass": "supermarket", "name": "Čardak zdrava hrana" }, "geometry": { "type": "Point", "coordinates": [ 19.8366845, 45.2532706 ] } },
{ "type": "Feature", "properties": { "osm_id": "4036940189", "code": 2516, "fclass": "butcher", "name": "Perutnina Ptuj" }, "geometry": { "type": "Point", "coordinates": [ 19.8367497, 45.2531761 ] } },
{ "type": "Feature", "properties": { "osm_id": "4036940190", "code": 2101, "fclass": "pharmacy", "name": "Tilia" }, "geometry": { "type": "Point", "coordinates": [ 19.838165, 45.2505855 ] } },
{ "type": "Feature", "properties": { "osm_id": "4036940192", "code": 2101, "fclass": "pharmacy", "name": "Biljana&Luka" }, "geometry": { "type": "Point", "coordinates": [ 19.8392652, 45.2486002 ] } },
{ "type": "Feature", "properties": { "osm_id": "4036942390", "code": 2502, "fclass": "bakery", "name": "Novosadski Hleb" }, "geometry": { "type": "Point", "coordinates": [ 19.8368749, 45.2529383 ] } },
{ "type": "Feature", "properties": { "osm_id": "4036944489", "code": 2516, "fclass": "butcher", "name": "Mesara \"Matić\"" }, "geometry": { "type": "Point", "coordinates": [ 19.837009, 45.2527362 ] } },
{ "type": "Feature", "properties": { "osm_id": "4036946889", "code": 2101, "fclass": "pharmacy", "name": "Phillypharm" }, "geometry": { "type": "Point", "coordinates": [ 19.8370814, 45.252638 ] } },
{ "type": "Feature", "properties": { "osm_id": "4036947989", "code": 2502, "fclass": "bakery", "name": "Pekara \"Aka\"" }, "geometry": { "type": "Point", "coordinates": [ 19.8371914, 45.2524077 ] } },
{ "type": "Feature", "properties": { "osm_id": "4036947990", "code": 2301, "fclass": "restaurant", "name": "Minuta Fast Food" }, "geometry": { "type": "Point", "coordinates": [ 19.8379049, 45.2513427 ] } },
{ "type": "Feature", "properties": { "osm_id": "4036949391", "code": 2567, "fclass": "travel_agent", "name": "Travel House" }, "geometry": { "type": "Point", "coordinates": [ 19.8384359, 45.2501002 ] } },
{ "type": "Feature", "properties": { "osm_id": "4036962989", "code": 2601, "fclass": "bank", "name": "Marfina Banka" }, "geometry": { "type": "Point", "coordinates": [ 19.839026, 45.2492089 ] } },
{ "type": "Feature", "properties": { "osm_id": "4036967289", "code": 2301, "fclass": "restaurant", "name": "Caffe Massimo" }, "geometry": { "type": "Point", "coordinates": [ 19.8392111, 45.2487916 ] } },
{ "type": "Feature", "properties": { "osm_id": "4036980589", "code": 2601, "fclass": "bank", "name": "Eurobank" }, "geometry": { "type": "Point", "coordinates": [ 19.8385944, 45.2498364 ] } },
{ "type": "Feature", "properties": { "osm_id": "4036982589", "code": 2101, "fclass": "pharmacy", "name": "Benu Apoteka" }, "geometry": { "type": "Point", "coordinates": [ 19.832926, 45.2601685 ] } },
{ "type": "Feature", "properties": { "osm_id": "4037876648", "code": 2518, "fclass": "beverages", "name": "DRINK STORE - Kupovina na Eks" }, "geometry": { "type": "Point", "coordinates": [ 19.8433108, 45.2620528 ] } },
{ "type": "Feature", "properties": { "osm_id": "4089150352", "code": 2602, "fclass": "atm", "name": null }, "geometry": { "type": "Point", "coordinates": [ 19.8427696, 45.252364 ] } },
{ "type": "Feature", "properties": { "osm_id": "4105587090", "code": 2302, "fclass": "fast_food", "name": "Fruštuk Bar" }, "geometry": { "type": "Point", "coordinates": [ 19.8400184, 45.24996 ] } },
{ "type": "Feature", "properties": { "osm_id": "4109637903", "code": 2303, "fclass": "cafe", "name": "Café Friends" }, "geometry": { "type": "Point", "coordinates": [ 19.8422199, 45.2477906 ] } },
{ "type": "Feature", "properties": { "osm_id": "4109637904", "code": 2511, "fclass": "convenience", "name": "IDEA" }, "geometry": { "type": "Point", "coordinates": [ 19.8421451, 45.2493954 ] } },
{ "type": "Feature", "properties": { "osm_id": "4111439397", "code": 2601, "fclass": "bank", "name": "OTP banka" }, "geometry": { "type": "Point", "coordinates": [ 19.8450763, 45.2531637 ] } },
{ "type": "Feature", "properties": { "osm_id": "4111876524", "code": 2561, "fclass": "hairdresser", "name": "Kod Brice" }, "geometry": { "type": "Point", "coordinates": [ 19.8457965, 45.256758 ] } },
{ "type": "Feature", "properties": { "osm_id": "4151003490", "code": 2301, "fclass": "restaurant", "name": "Koliba" }, "geometry": { "type": "Point", "coordinates": [ 19.848684, 45.248546 ] } },
{ "type": "Feature", "properties": { "osm_id": "4151026289", "code": 2542, "fclass": "bicycle_shop", "name": "Planet Bike" }, "geometry": { "type": "Point", "coordinates": [ 19.8324164, 45.2547592 ] } },
{ "type": "Feature", "properties": { "osm_id": "4153815204", "code": 2515, "fclass": "bookshop", "name": "Вулкан" }, "geometry": { "type": "Point", "coordinates": [ 19.8477708, 45.2565456 ] } },
{ "type": "Feature", "properties": { "osm_id": "4153816406", "code": 2305, "fclass": "bar", "name": "Pivnica Lokal" }, "geometry": { "type": "Point", "coordinates": [ 19.8504621, 45.2564024 ] } },
{ "type": "Feature", "properties": { "osm_id": "4153825489", "code": 2304, "fclass": "pub", "name": "Brauhaus" }, "geometry": { "type": "Point", "coordinates": [ 19.8450116, 45.2531887 ] } },
{ "type": "Feature", "properties": { "osm_id": "4153840790", "code": 2742, "fclass": "viewpoint", "name": null }, "geometry": { "type": "Point", "coordinates": [ 19.8557027, 45.2304222 ] } },
{ "type": "Feature", "properties": { "osm_id": "4153840826", "code": 2301, "fclass": "restaurant", "name": "Alla Lanterna" }, "geometry": { "type": "Point", "coordinates": [ 19.850132, 45.256425 ] } },
{ "type": "Feature", "properties": { "osm_id": "4153863815", "code": 2515, "fclass": "bookshop", "name": null }, "geometry": { "type": "Point", "coordinates": [ 19.8469647, 45.2520752 ] } },
{ "type": "Feature", "properties": { "osm_id": "4153863816", "code": 2601, "fclass": "bank", "name": "Banca Intesa" }, "geometry": { "type": "Point", "coordinates": [ 19.8441165, 45.2531436 ] } },
{ "type": "Feature", "properties": { "osm_id": "4153863903", "code": 2303, "fclass": "cafe", "name": null }, "geometry": { "type": "Point", "coordinates": [ 19.8517265, 45.2560423 ] } },
{ "type": "Feature", "properties": { "osm_id": "4153864098", "code": 2568, "fclass": "laundry", "name": "Pop's" }, "geometry": { "type": "Point", "coordinates": [ 19.840807, 45.2434275 ] } },
{ "type": "Feature", "properties": { "osm_id": "4153864291", "code": 2205, "fclass": "playground", "name": null }, "geometry": { "type": "Point", "coordinates": [ 19.8487246, 45.2400911 ] } },
{ "type": "Feature", "properties": { "osm_id": "4153864292", "code": 2303, "fclass": "cafe", "name": null }, "geometry": { "type": "Point", "coordinates": [ 19.848923, 45.2370768 ] } },
{ "type": "Feature", "properties": { "osm_id": "4153864293", "code": 2303, "fclass": "cafe", "name": null }, "geometry": { "type": "Point", "coordinates": [ 19.8486867, 45.2372936 ] } },
{ "type": "Feature", "properties": { "osm_id": "4153864493", "code": 2303, "fclass": "cafe", "name": "Tropicana beach bar" }, "geometry": { "type": "Point", "coordinates": [ 19.8481562, 45.2370862 ] } },
{ "type": "Feature", "properties": { "osm_id": "4153881989", "code": 2303, "fclass": "cafe", "name": null }, "geometry": { "type": "Point", "coordinates": [ 19.8473593, 45.2360255 ] } },
{ "type": "Feature", "properties": { "osm_id": "4153881990", "code": 2561, "fclass": "hairdresser", "name": "Baron Fashion" }, "geometry": { "type": "Point", "coordinates": [ 19.8489947, 45.2481248 ] } },
{ "type": "Feature", "properties": { "osm_id": "4153910991", "code": 2302, "fclass": "fast_food", "name": null }, "geometry": { "type": "Point", "coordinates": [ 19.8465206, 45.2538323 ] } },
{ "type": "Feature", "properties": { "osm_id": "4153911189", "code": 2304, "fclass": "pub", "name": "Dobri Dim Gastro Pub" }, "geometry": { "type": "Point", "coordinates": [ 19.8465039, 45.2562868 ] } },
{ "type": "Feature", "properties": { "osm_id": "4153925289", "code": 2303, "fclass": "cafe", "name": null }, "geometry": { "type": "Point", "coordinates": [ 19.8458331, 45.2542195 ] } },
{ "type": "Feature", "properties": { "osm_id": "4162278994", "code": 2301, "fclass": "restaurant", "name": "La Forza" }, "geometry": { "type": "Point", "coordinates": [ 19.84556, 45.2562342 ] } },
{ "type": "Feature", "properties": { "osm_id": "4166609792", "code": 2502, "fclass": "bakery", "name": "Jana" }, "geometry": { "type": "Point", "coordinates": [ 19.8335922, 45.2444983 ] } },
{ "type": "Feature", "properties": { "osm_id": "4166609793", "code": 2303, "fclass": "cafe", "name": "Gaja" }, "geometry": { "type": "Point", "coordinates": [ 19.8388399, 45.2496152 ] } },
{ "type": "Feature", "properties": { "osm_id": "4166612291", "code": 2303, "fclass": "cafe", "name": "Gulag Pub" }, "geometry": { "type": "Point", "coordinates": [ 19.8341076, 45.2464995 ] } },
{ "type": "Feature", "properties": { "osm_id": "4169633489", "code": 2120, "fclass": "doctors", "name": "Служба здравствене заштите радника \"Дунавска\"" }, "geometry": { "type": "Point", "coordinates": [ 19.8533084, 45.2559711 ] } },
{ "type": "Feature", "properties": { "osm_id": "4169644453", "code": 2120, "fclass": "doctors", "name": "Служба здравствене заштите радника \"СНП\"" }, "geometry": { "type": "Point", "coordinates": [ 19.8431866, 45.2558003 ] } },
{ "type": "Feature", "properties": { "osm_id": "4169783890", "code": 2542, "fclass": "bicycle_shop", "name": "Capriolo" }, "geometry": { "type": "Point", "coordinates": [ 19.8439781, 45.2659017 ] } },
{ "type": "Feature", "properties": { "osm_id": "4169783891", "code": 2513, "fclass": "florist", "name": "Green Art" }, "geometry": { "type": "Point", "coordinates": [ 19.8437791, 45.2628856 ] } },
{ "type": "Feature", "properties": { "osm_id": "4170127591", "code": 2568, "fclass": "laundry", "name": "Elegant" }, "geometry": { "type": "Point", "coordinates": [ 19.8382216, 45.2462969 ] } },
{ "type": "Feature", "properties": { "osm_id": "4176467792", "code": 2301, "fclass": "restaurant", "name": "Salaš 137" }, "geometry": { "type": "Point", "coordinates": [ 19.8500751, 45.2577273 ] } },
{ "type": "Feature", "properties": { "osm_id": "4185008398", "code": 2505, "fclass": "department_store", "name": "Mega Shop" }, "geometry": { "type": "Point", "coordinates": [ 19.8553114, 45.2520639 ] } },
{ "type": "Feature", "properties": { "osm_id": "4212316972", "code": 2301, "fclass": "restaurant", "name": "EmChi" }, "geometry": { "type": "Point", "coordinates": [ 19.8432952, 45.2576317 ] } },
{ "type": "Feature", "properties": { "osm_id": "4215732993", "code": 2304, "fclass": "pub", "name": "Код Љубице и Марка" }, "geometry": { "type": "Point", "coordinates": [ 19.8402789, 45.2602094 ] } },
{ "type": "Feature", "properties": { "osm_id": "4218884191", "code": 2301, "fclass": "restaurant", "name": "Tramontana pizza & wine bar" }, "geometry": { "type": "Point", "coordinates": [ 19.8465459, 45.2576555 ] } },
{ "type": "Feature", "properties": { "osm_id": "4218896391", "code": 2304, "fclass": "pub", "name": "Lager & Wine" }, "geometry": { "type": "Point", "coordinates": [ 19.8461687, 45.2568789 ] } },
{ "type": "Feature", "properties": { "osm_id": "4223410089", "code": 2301, "fclass": "restaurant", "name": "Arhiv" }, "geometry": { "type": "Point", "coordinates": [ 19.8475021, 45.2551374 ] } },
{ "type": "Feature", "properties": { "osm_id": "4234796689", "code": 2602, "fclass": "atm", "name": null }, "geometry": { "type": "Point", "coordinates": [ 19.8396156, 45.2624447 ] } },
{ "type": "Feature", "properties": { "osm_id": "4244682396", "code": 2301, "fclass": "restaurant", "name": "Gondola" }, "geometry": { "type": "Point", "coordinates": [ 19.8506267, 45.2537755 ] } },
{ "type": "Feature", "properties": { "osm_id": "4258400990", "code": 2404, "fclass": "guesthouse", "name": "Sky" }, "geometry": { "type": "Point", "coordinates": [ 19.8471033, 45.264486 ] } },
{ "type": "Feature", "properties": { "osm_id": "4307263415", "code": 2301, "fclass": "restaurant", "name": "Zlatiborsko" }, "geometry": { "type": "Point", "coordinates": [ 19.8430839, 45.2491085 ] } },
{ "type": "Feature", "properties": { "osm_id": "4328038991", "code": 2303, "fclass": "cafe", "name": "Don Pepe" }, "geometry": { "type": "Point", "coordinates": [ 19.8342879, 45.239051 ] } },
{ "type": "Feature", "properties": { "osm_id": "4328068491", "code": 2303, "fclass": "cafe", "name": "Incognito" }, "geometry": { "type": "Point", "coordinates": [ 19.8374035, 45.2642117 ] } },
{ "type": "Feature", "properties": { "osm_id": "4332453134", "code": 2524, "fclass": "outdoor_shop", "name": "THULE" }, "geometry": { "type": "Point", "coordinates": [ 19.8462681, 45.2476755 ] } },
{ "type": "Feature", "properties": { "osm_id": "4332484306", "code": 2302, "fclass": "fast_food", "name": "Minuta" }, "geometry": { "type": "Point", "coordinates": [ 19.8466047, 45.2472913 ] } },
{ "type": "Feature", "properties": { "osm_id": "4339504989", "code": 2303, "fclass": "cafe", "name": "kaffaBar" }, "geometry": { "type": "Point", "coordinates": [ 19.8412681, 45.243435 ] } },
{ "type": "Feature", "properties": { "osm_id": "4342146391", "code": 2302, "fclass": "fast_food", "name": "Pod Orahom" }, "geometry": { "type": "Point", "coordinates": [ 19.8272074, 45.2596313 ] } },
{ "type": "Feature", "properties": { "osm_id": "4342750290", "code": 2082, "fclass": "school", "name": "Средња машинска школа Нови Сад" }, "geometry": { "type": "Point", "coordinates": [ 19.8282013, 45.2600445 ] } },
{ "type": "Feature", "properties": { "osm_id": "4342750291", "code": 2082, "fclass": "school", "name": "Техничка школа „Милева Марић“" }, "geometry": { "type": "Point", "coordinates": [ 19.8280068, 45.2618571 ] } },
{ "type": "Feature", "properties": { "osm_id": "4348038694", "code": 2302, "fclass": "fast_food", "name": "Caribic Pizza" }, "geometry": { "type": "Point", "coordinates": [ 19.8415732, 45.2488195 ] } },
{ "type": "Feature", "properties": { "osm_id": "4348058889", "code": 2561, "fclass": "hairdresser", "name": "GOGA'D-A" }, "geometry": { "type": "Point", "coordinates": [ 19.8342089, 45.2399032 ] } },
{ "type": "Feature", "properties": { "osm_id": "4356553692", "code": 2502, "fclass": "bakery", "name": "Енџи" }, "geometry": { "type": "Point", "coordinates": [ 19.8461847, 45.2654587 ] } },
{ "type": "Feature", "properties": { "osm_id": "4356610389", "code": 2305, "fclass": "bar", "name": "Grafiti" }, "geometry": { "type": "Point", "coordinates": [ 19.8497413, 45.2608478 ] } },
{ "type": "Feature", "properties": { "osm_id": "4356610390", "code": 2511, "fclass": "convenience", "name": "Mikromarket 20" }, "geometry": { "type": "Point", "coordinates": [ 19.8471221, 45.2639986 ] } },
{ "type": "Feature", "properties": { "osm_id": "4356610489", "code": 2304, "fclass": "pub", "name": "Mazut Pub" }, "geometry": { "type": "Point", "coordinates": [ 19.8462555, 45.2568406 ] } },
{ "type": "Feature", "properties": { "osm_id": "4379295892", "code": 2301, "fclass": "restaurant", "name": "Barkly" }, "geometry": { "type": "Point", "coordinates": [ 19.849356, 45.248242 ] } },
{ "type": "Feature", "properties": { "osm_id": "4395716890", "code": 2561, "fclass": "hairdresser", "name": "Rock 'n'  cut" }, "geometry": { "type": "Point", "coordinates": [ 19.8367722, 45.2550149 ] } },
{ "type": "Feature", "properties": { "osm_id": "4423233389", "code": 2564, "fclass": "car_wash", "name": "Универзал" }, "geometry": { "type": "Point", "coordinates": [ 19.8511592, 45.2649986 ] } },
{ "type": "Feature", "properties": { "osm_id": "4435721529", "code": 2501, "fclass": "supermarket", "name": "Персу" }, "geometry": { "type": "Point", "coordinates": [ 19.8362112, 45.2615085 ] } },
{ "type": "Feature", "properties": { "osm_id": "4435721530", "code": 2301, "fclass": "restaurant", "name": null }, "geometry": { "type": "Point", "coordinates": [ 19.833474, 45.2607293 ] } },
{ "type": "Feature", "properties": { "osm_id": "4462536190", "code": 2512, "fclass": "clothes", "name": "Butik Status" }, "geometry": { "type": "Point", "coordinates": [ 19.8448939, 45.2544378 ] } },
{ "type": "Feature", "properties": { "osm_id": "4466247490", "code": 2202, "fclass": "nightclub", "name": "Kućerda BalkanBeatBar" }, "geometry": { "type": "Point", "coordinates": [ 19.8428734, 45.2478322 ] } },
{ "type": "Feature", "properties": { "osm_id": "4466263189", "code": 2301, "fclass": "restaurant", "name": "Šećer&Soul" }, "geometry": { "type": "Point", "coordinates": [ 19.8443637, 45.248493 ] } },
{ "type": "Feature", "properties": { "osm_id": "4471437389", "code": 2502, "fclass": "bakery", "name": "Buregzinica Liman" }, "geometry": { "type": "Point", "coordinates": [ 19.8472391, 45.2415116 ] } },
{ "type": "Feature", "properties": { "osm_id": "4481677990", "code": 2303, "fclass": "cafe", "name": "Šećer i soul" }, "geometry": { "type": "Point", "coordinates": [ 19.8441977, 45.2485432 ] } },
{ "type": "Feature", "properties": { "osm_id": "4489488090", "code": 2304, "fclass": "pub", "name": null }, "geometry": { "type": "Point", "coordinates": [ 19.8497568, 45.2571096 ] } },
{ "type": "Feature", "properties": { "osm_id": "4548437677", "code": 2601, "fclass": "bank", "name": "Alpha Bank" }, "geometry": { "type": "Point", "coordinates": [ 19.836823, 45.2514253 ] } },
{ "type": "Feature", "properties": { "osm_id": "4548437678", "code": 2101, "fclass": "pharmacy", "name": "Laurus 3" }, "geometry": { "type": "Point", "coordinates": [ 19.8369746, 45.2510713 ] } },
{ "type": "Feature", "properties": { "osm_id": "4554021582", "code": 2301, "fclass": "restaurant", "name": "Ни Хао" }, "geometry": { "type": "Point", "coordinates": [ 19.8483899, 45.2394263 ] } },
{ "type": "Feature", "properties": { "osm_id": "4574913701", "code": 2005, "fclass": "post_office", "name": "21139 Нови Сад" }, "geometry": { "type": "Point", "coordinates": [ 19.8578106, 45.2666089 ] } },
{ "type": "Feature", "properties": { "osm_id": "4599927889", "code": 2304, "fclass": "pub", "name": "Arena Pub" }, "geometry": { "type": "Point", "coordinates": [ 19.841928, 45.2509513 ] } },
{ "type": "Feature", "properties": { "osm_id": "4705054303", "code": 2401, "fclass": "hotel", "name": null }, "geometry": { "type": "Point", "coordinates": [ 19.8455362, 45.258558 ] } },
{ "type": "Feature", "properties": { "osm_id": "4709399689", "code": 2725, "fclass": "artwork", "name": null }, "geometry": { "type": "Point", "coordinates": [ 19.8546155, 45.261595 ] } },
{ "type": "Feature", "properties": { "osm_id": "4713766992", "code": 2502, "fclass": "bakery", "name": "Dunav" }, "geometry": { "type": "Point", "coordinates": [ 19.8366129, 45.2519183 ] } },
{ "type": "Feature", "properties": { "osm_id": "4713794090", "code": 2082, "fclass": "school", "name": "Sveti Sava" }, "geometry": { "type": "Point", "coordinates": [ 19.8362056, 45.2524944 ] } },
{ "type": "Feature", "properties": { "osm_id": "4714010190", "code": 2521, "fclass": "gift_shop", "name": "Top-Shop PJ3" }, "geometry": { "type": "Point", "coordinates": [ 19.8447591, 45.2531721 ] } },
{ "type": "Feature", "properties": { "osm_id": "4736458266", "code": 2301, "fclass": "restaurant", "name": "Stevča Soul Food" }, "geometry": { "type": "Point", "coordinates": [ 19.8475505, 45.2503468 ] } },
{ "type": "Feature", "properties": { "osm_id": "4736458267", "code": 2561, "fclass": "hairdresser", "name": "Shine On" }, "geometry": { "type": "Point", "coordinates": [ 19.8423932, 45.2478136 ] } },
{ "type": "Feature", "properties": { "osm_id": "4750566624", "code": 2301, "fclass": "restaurant", "name": "Kineski Zmaj" }, "geometry": { "type": "Point", "coordinates": [ 19.8499214, 45.2561066 ] } },
{ "type": "Feature", "properties": { "osm_id": "4767169439", "code": 2121, "fclass": "dentist", "name": null }, "geometry": { "type": "Point", "coordinates": [ 19.8521596, 45.2591304 ] } },
{ "type": "Feature", "properties": { "osm_id": "4773432077", "code": 2301, "fclass": "restaurant", "name": "Цепелин 1991" }, "geometry": { "type": "Point", "coordinates": [ 19.8563475, 45.2505703 ] } },
{ "type": "Feature", "properties": { "osm_id": "4797351149", "code": 2511, "fclass": "convenience", "name": "Микромаркет ПЈ 117" }, "geometry": { "type": "Point", "coordinates": [ 19.8353112, 45.2622999 ] } },
{ "type": "Feature", "properties": { "osm_id": "4813276116", "code": 2302, "fclass": "fast_food", "name": "Toster Bar" }, "geometry": { "type": "Point", "coordinates": [ 19.8479563, 45.2563669 ] } },
{ "type": "Feature", "properties": { "osm_id": "4813276117", "code": 2304, "fclass": "pub", "name": "Danka" }, "geometry": { "type": "Point", "coordinates": [ 19.8481279, 45.2562905 ] } },
{ "type": "Feature", "properties": { "osm_id": "4850267921", "code": 2303, "fclass": "cafe", "name": "PASCAL" }, "geometry": { "type": "Point", "coordinates": [ 19.851167, 45.2499227 ] } },
{ "type": "Feature", "properties": { "osm_id": "4876948821", "code": 2301, "fclass": "restaurant", "name": "Jang C" }, "geometry": { "type": "Point", "coordinates": [ 19.8442915, 45.2568613 ] } },
{ "type": "Feature", "properties": { "osm_id": "4880774621", "code": 2502, "fclass": "bakery", "name": "СкРоЗ ДоБрА ПеКаРа" }, "geometry": { "type": "Point", "coordinates": [ 19.8322439, 45.259734 ] } },
{ "type": "Feature", "properties": { "osm_id": "4884369823", "code": 2301, "fclass": "restaurant", "name": "Alaska Terasa" }, "geometry": { "type": "Point", "coordinates": [ 19.8342612, 45.2295657 ] } },
{ "type": "Feature", "properties": { "osm_id": "4884933921", "code": 2120, "fclass": "doctors", "name": "Signal" }, "geometry": { "type": "Point", "coordinates": [ 19.8416865, 45.2480977 ] } },
{ "type": "Feature", "properties": { "osm_id": "4902244842", "code": 2305, "fclass": "bar", "name": "The Quarter" }, "geometry": { "type": "Point", "coordinates": [ 19.8428156, 45.2376767 ] } },
{ "type": "Feature", "properties": { "osm_id": "4909216223", "code": 2305, "fclass": "bar", "name": "En Passant" }, "geometry": { "type": "Point", "coordinates": [ 19.8322044, 45.2547365 ] } },
{ "type": "Feature", "properties": { "osm_id": "4909216225", "code": 2301, "fclass": "restaurant", "name": "Сокаче" }, "geometry": { "type": "Point", "coordinates": [ 19.8394479, 45.2547921 ] } },
{ "type": "Feature", "properties": { "osm_id": "4979519427", "code": 2303, "fclass": "cafe", "name": null }, "geometry": { "type": "Point", "coordinates": [ 19.8449451, 45.2537681 ] } },
{ "type": "Feature", "properties": { "osm_id": "4986676727", "code": 2903, "fclass": "drinking_water", "name": null }, "geometry": { "type": "Point", "coordinates": [ 19.855626, 45.2528934 ] } },
{ "type": "Feature", "properties": { "osm_id": "4988940524", "code": 2007, "fclass": "library", "name": "Дечје одељење" }, "geometry": { "type": "Point", "coordinates": [ 19.848717, 45.2575091 ] } },
{ "type": "Feature", "properties": { "osm_id": "4988940526", "code": 2120, "fclass": "doctors", "name": "Лекарска комисија" }, "geometry": { "type": "Point", "coordinates": [ 19.8380353, 45.258013 ] } },
{ "type": "Feature", "properties": { "osm_id": "4990645021", "code": 2111, "fclass": "clinic", "name": "Ordinacija za fizikalnu medicinu Jakovljević" }, "geometry": { "type": "Point", "coordinates": [ 19.8281131, 45.236684 ] } },
{ "type": "Feature", "properties": { "osm_id": "5005024123", "code": 2542, "fclass": "bicycle_shop", "name": "Ris" }, "geometry": { "type": "Point", "coordinates": [ 19.8351081, 45.2571496 ] } },
{ "type": "Feature", "properties": { "osm_id": "5005053521", "code": 2542, "fclass": "bicycle_shop", "name": "Fanatic Bicycle Shop & Service" }, "geometry": { "type": "Point", "coordinates": [ 19.8395877, 45.2482842 ] } },
{ "type": "Feature", "properties": { "osm_id": "5038918221", "code": 2301, "fclass": "restaurant", "name": null }, "geometry": { "type": "Point", "coordinates": [ 19.8448746, 45.2557826 ] } },
{ "type": "Feature", "properties": { "osm_id": "5038918421", "code": 2602, "fclass": "atm", "name": null }, "geometry": { "type": "Point", "coordinates": [ 19.8452176, 45.2554969 ] } },
{ "type": "Feature", "properties": { "osm_id": "5041864325", "code": 2502, "fclass": "bakery", "name": null }, "geometry": { "type": "Point", "coordinates": [ 19.8435368, 45.2637167 ] } },
{ "type": "Feature", "properties": { "osm_id": "5041864326", "code": 2301, "fclass": "restaurant", "name": null }, "geometry": { "type": "Point", "coordinates": [ 19.8453173, 45.2588032 ] } },
{ "type": "Feature", "properties": { "osm_id": "5041864327", "code": 2511, "fclass": "convenience", "name": null }, "geometry": { "type": "Point", "coordinates": [ 19.8454598, 45.2588993 ] } },
{ "type": "Feature", "properties": { "osm_id": "5041864522", "code": 2561, "fclass": "hairdresser", "name": "А ко те шиша" }, "geometry": { "type": "Point", "coordinates": [ 19.8434675, 45.2629175 ] } },
{ "type": "Feature", "properties": { "osm_id": "5041864523", "code": 2511, "fclass": "convenience", "name": null }, "geometry": { "type": "Point", "coordinates": [ 19.8454073, 45.2587599 ] } },
{ "type": "Feature", "properties": { "osm_id": "5041868721", "code": 2526, "fclass": "toy_shop", "name": null }, "geometry": { "type": "Point", "coordinates": [ 19.8435438, 45.2638568 ] } },
{ "type": "Feature", "properties": { "osm_id": "5041868722", "code": 2305, "fclass": "bar", "name": "Браца" }, "geometry": { "type": "Point", "coordinates": [ 19.8440024, 45.2642116 ] } },
{ "type": "Feature", "properties": { "osm_id": "5041868723", "code": 2302, "fclass": "fast_food", "name": null }, "geometry": { "type": "Point", "coordinates": [ 19.8427467, 45.259503 ] } },
{ "type": "Feature", "properties": { "osm_id": "5041868821", "code": 2528, "fclass": "greengrocer", "name": null }, "geometry": { "type": "Point", "coordinates": [ 19.8439798, 45.2638526 ] } },
{ "type": "Feature", "properties": { "osm_id": "5041868822", "code": 2602, "fclass": "atm", "name": null }, "geometry": { "type": "Point", "coordinates": [ 19.84445, 45.2570413 ] } },
{ "type": "Feature", "properties": { "osm_id": "5041870021", "code": 2517, "fclass": "shoe_shop", "name": "Čik" }, "geometry": { "type": "Point", "coordinates": [ 19.8458274, 45.2585173 ] } },
{ "type": "Feature", "properties": { "osm_id": "5052350921", "code": 2305, "fclass": "bar", "name": "Passion night club" }, "geometry": { "type": "Point", "coordinates": [ 19.8413555, 45.2613534 ] } },
{ "type": "Feature", "properties": { "osm_id": "5079018879", "code": 2511, "fclass": "convenience", "name": "Šakan" }, "geometry": { "type": "Point", "coordinates": [ 19.8511372, 45.2511802 ] } },
{ "type": "Feature", "properties": { "osm_id": "5079018880", "code": 2302, "fclass": "fast_food", "name": "Grill 5" }, "geometry": { "type": "Point", "coordinates": [ 19.8509185, 45.2510451 ] } },
{ "type": "Feature", "properties": { "osm_id": "5079082065", "code": 2502, "fclass": "bakery", "name": "Kao nekad" }, "geometry": { "type": "Point", "coordinates": [ 19.8513201, 45.2499878 ] } },
{ "type": "Feature", "properties": { "osm_id": "5079082066", "code": 2101, "fclass": "pharmacy", "name": null }, "geometry": { "type": "Point", "coordinates": [ 19.8516153, 45.2497559 ] } },
{ "type": "Feature", "properties": { "osm_id": "5079082067", "code": 2303, "fclass": "cafe", "name": "Brocolli" }, "geometry": { "type": "Point", "coordinates": [ 19.8516583, 45.249643 ] } },
{ "type": "Feature", "properties": { "osm_id": "5079107845", "code": 2301, "fclass": "restaurant", "name": "Stratus" }, "geometry": { "type": "Point", "coordinates": [ 19.8530215, 45.2496798 ] } },
{ "type": "Feature", "properties": { "osm_id": "5079107846", "code": 2501, "fclass": "supermarket", "name": "Univerexport" }, "geometry": { "type": "Point", "coordinates": [ 19.8529987, 45.2498369 ] } },
{ "type": "Feature", "properties": { "osm_id": "5086554966", "code": 2305, "fclass": "bar", "name": "Tehnolog's" }, "geometry": { "type": "Point", "coordinates": [ 19.8473937, 45.2505397 ] } },
{ "type": "Feature", "properties": { "osm_id": "5091686192", "code": 2502, "fclass": "bakery", "name": "Bačka S" }, "geometry": { "type": "Point", "coordinates": [ 19.8506172, 45.2525924 ] } },
{ "type": "Feature", "properties": { "osm_id": "5091686197", "code": 2111, "fclass": "clinic", "name": "Dom zdravlja \"Bulevar\"" }, "geometry": { "type": "Point", "coordinates": [ 19.8523654, 45.2544012 ] } },
{ "type": "Feature", "properties": { "osm_id": "5091686198", "code": 2511, "fclass": "convenience", "name": "IDEA" }, "geometry": { "type": "Point", "coordinates": [ 19.8552289, 45.2524868 ] } },
{ "type": "Feature", "properties": { "osm_id": "5091693755", "code": 2082, "fclass": "school", "name": "Гимназија „Исидора Секулић“" }, "geometry": { "type": "Point", "coordinates": [ 19.8482368, 45.2521756 ] } },
{ "type": "Feature", "properties": { "osm_id": "5128618757", "code": 2511, "fclass": "convenience", "name": "Idea" }, "geometry": { "type": "Point", "coordinates": [ 19.842297, 45.2608104 ] } },